#GemCSV1.10
#[msSamp]ADC #m=10,0
#[DmsSamp,]ADC
#G,msPPS,msLag,yr,mo,day,hr,min,sec,lat,lon
#M,ms,batt(V),temp(C),A2,A3,maxLag,minFree,maxUsed,maxOver,gpsFlag,freeStack1,freeStackIdle
S,128
#Firmware0.963-15_2022-03-14T00:32:06Z
C,1,15,20,0,0,0
D4500,586
k
p
o
lk
l
o
k
lm
p
m
l
ll
l
n
m
m
lk
n
o
m
lk
m
o
m
ll
n
m
n
lm
k
m
o
m
ll
m
m
m
ln
l
m
m
ll
n
m
n
lm
m
l
l
M,5019,4.00,1.8,0.548,0.600,57,69,6,0,0,42,50
n
lo
l
k
p
lo
j
m
m
lm
n
n
l
m
lm
l
n
p
lm
j
m
m
ln
n
m
m
ll
n
n
k
l
ln
p
k
j
lm
n
o
n
lk
m
o
n
ll
m
l
m
o
lm
l
m
m
ln
n
m
k
ll
m
n
n
lk
k
n
n
o
lm
k
k
o
lo
l
l
l
lo
p
k
j
m
lp
m
k
j
lp
n
l
m
lo
n
n
l
lm
l
l
o
m
ll
m
o
m
ll
M,5995,4.00,1.8,0.548,0.600,14,74,1,0,0,42,50
n
m
m
ll
m
n
n
ln
k
k
n
n
lk
n
m
n
ln
k
l
n
lm
k
l
o
lm
m
m
l
n
lm
n
m
n
ln
k
l
n
ln
n
l
k
o
lm
n
l
k
ln
n
k
l
lq
m
i
o
lp
i
j
n
n
ln
p
l
i
ln
o
j
j
lp
s
l
i
ln
n
m
n
k
lm
o
k
m
lp
l
j
m
ln
m
m
p
ln
h
m
p
m
lk
l
l
o
lp
l
k
M,6972,4.00,1.8,0.548,0.600,13,74,1,0,0,42,50
k
ln
o
l
l
m
ll
m
o
m
lm
n
l
l
ln
m
n
o
ll
l
n
m
l
lm
o
l
j
ln
o
l
l
lo
m
l
m
ll
p
n
j
m
lo
m
l
m
lm
m
p
k
lj
m
o
o
lk
m
o
k
m
ln
l
k
n
lp
m
j
m
lm
m
p
k
l
ln
m
m
m
lm
m
m
n
lk
l
n
m
ln
m
l
k
n
lp
o
k
j
ln
n
p
n
lj
k
o
p
lj
M,7948,4.00,1.8,0.545,0.594,14,74,1,0,0,42,50
k
m
o
o
ll
n
l
k
lo
p
m
j
li
o
p
m
lj
j
n
o
m
lk
l
o
o
lk
l
o
m
ll
l
p
n
k
ll
n
n
o
ll
l
n
m
ll
m
k
l
lm
p
o
l
l
ll
m
m
m
lm
n
k
n
ln
m
m
n
ll
j
o
n
n
ll
l
m
l
ln
l
k
l
ln
n
n
l
lk
o
o
m
k
lm
m
o
k
ll
p
l
m
ll
k
m
n
n
ln
k
M,733,4.00,1.8,0.545,0.603,13,74,1,0,0,42,50
m
n
lm
n
l
l
lm
m
m
m
lp
m
l
m
m
ln
l
l
n
lm
l
m
l
lm
o
l
m
ll
m
k
m
p
lm
l
l
o
ln
k
l
n
lo
l
k
m
ln
m
l
k
n
ln
n
l
n
lo
m
k
k
lo
o
k
k
m
lo
o
l
l
ll
n
o
m
lm
k
m
n
ln
m
m
o
k
ll
o
o
l
lk
m
o
m
lk
l
n
n
lo
n
k
j
l
lp
n
l
m
M,1709,4.00,1.8,0.542,0.591,15,74,1,0,0,42,50
lo
m
k
m
lm
n
m
l
ln
m
k
l
o
ln
k
l
o
ln
n
l
m
ln
l
k
p
m
lk
m
o
l
lm
l
l
m
ln
o
m
l
ll
o
n
l
l
lm
l
n
m
lk
n
n
n
lk
l
l
n
ln
m
m
n
m
lk
l
p
o
ll
i
l
q
ln
j
k
p
lm
k
m
l
n
ln
m
n
m
lm
l
l
o
ln
l
j
l
m
lo
m
j
k
ln
n
m
m
ln
m
M,2686,4.00,1.8,0.548,0.603,14,74,1,0,0,42,50
m
m
ln
n
l
l
m
lp
k
k
p
ll
l
o
l
lj
o
n
m
ll
n
m
l
m
lm
m
o
n
ll
j
m
n
lo
l
j
m
lm
n
m
k
p
ln
k
n
n
ll
m
n
k
ll
n
n
n
n
ll
k
m
m
lk
n
l
l
lo
q
m
i
ln
o
k
n
n
ll
l
l
o
ll
m
n
m
lj
m
n
m
ll
m
o
k
n
lp
k
l
p
ln
j
k
q
ln
l
l
n
M,3663,4.00,1.8,0.548,0.600,14,74,1,0,0,42,50
ln
m
m
l
m
ll
m
n
l
ll
o
l
l
lo
n
k
m
n
ln
l
m
n
lm
k
n
p
lk
l
o
n
lm
k
l
n
o
ll
n
m
l
ln
n
l
m
ln
n
l
k
ll
o
n
k
m
lp
l
l
l
lo
o
j
l
ll
n
n
k
lm
o
l
l
n
ln
m
n
m
lm
k
n
n
lk
j
o
q
l
ll
m
n
o
lm
m
k
l
lo
n
m
n
ll
n
m
j
l
lo
M,4639,4.00,1.8,0.545,0.594,13,74,1,0,0,42,50
o
l
l
lm
m
k
m
ll
m
m
n
ln
m
n
k
l
ln
l
m
p
ll
j
p
n
lm
o
k
j
lm
n
m
l
m
ll
k
n
o
lj
k
p
o
lk
l
p
n
j
lk
n
m
m
lk
n
o
n
lm
k
m
k
ln
n
m
n
l
lm
l
m
o
lm
l
i
n
lo
n
l
k
ln
o
m
l
j
ln
n
n
m
lk
n
q
m
li
j
o
n
lo
l
m
n
j
ll
n
l
M,5616,4.00,1.8,0.545,0.594,23,73,2,0,0,42,50
l
lq
l
k
m
lm
l
o
m
j
ll
p
n
l
lm
k
n
m
lo
m
k
l
ln
m
k
m
m
ln
n
l
k
ln
o
n
k
ll
o
m
n
ll
l
m
n
l
ln
m
k
m
lm
m
l
n
lp
m
l
m
ll
n
l
l
m
ln
o
n
j
lm
p
m
k
lm
m
m
l
m
lm
l
l
k
ln
q
n
j
ll
o
l
n
lo
k
k
m
o
lo
m
k
m
lo
m
m
k
lk
M,6592,4.00,1.8,0.552,0.597,150,60,15,0,1,42,50
n
r
m
lj
m
n
m
l
lm
m
k
l
lm
o
m
k
ln
p
n
k
lj
n
p
l
l
ln
n
o
o
ll
j
n
m
ll
n
m
j
n
lp
l
k
n
lo
n
k
l
lm
o
m
l
lm
m
l
p
n
ll
m
l
k
lo
o
m
k
lk
n
n
l
ln
m
n
m
n
lm
o
m
j
ll
o
m
l
lm
o
m
n
lm
k
k
n
l
lo
o
k
m
ln
l
k
l
lo
n
n
M,7569,4.00,1.8,0.548,0.600,15,74,1,0,1,42,50
j
m
lm
l
n
l
ll
m
m
l
ln
n
m
l
lm
o
m
m
k
ln
n
m
n
ll
l
n
l
ln
j
l
o
lo
k
l
m
m
lm
l
l
o
ln
k
k
q
lo
j
l
l
lm
n
n
l
l
ln
m
k
n
ln
m
l
l
ln
m
k
m
o
lj
k
o
q
lm
k
l
m
lm
m
m
m
ll
n
n
m
n
lm
l
n
l
lm
m
l
m
lo
m
l
m
ll
l
o
n
m
M,353,4.00,1.8,0.555,0.594,15,74,1,0,1,42,50
ll
l
m
o
ln
l
k
m
ln
n
m
j
lm
r
m
i
l
ln
p
n
k
ll
n
n
l
lm
l
l
k
l
lp
p
k
k
lo
o
m
k
ll
m
m
n
ln
m
m
k
o
lp
l
k
n
ln
m
m
k
ll
o
l
m
ln
l
n
o
k
lm
m
m
m
ln
l
l
n
ll
l
m
n
ln
n
k
m
n
li
n
p
m
lk
j
p
n
ll
m
m
l
o
ln
l
m
n
lk
k
M,1330,4.00,1.8,0.548,0.597,14,74,1,0,1,42,50
n
o
lk
k
n
p
lm
k
l
n
m
ll
n
j
n
lo
l
m
p
ll
j
n
n
ln
m
l
l
m
ll
p
o
l
lk
n
n
l
lm
n
m
m
ll
m
m
l
n
lm
m
n
m
ll
m
n
l
lm
l
m
p
l
lk
m
m
m
ln
l
l
n
ln
l
j
m
ln
o
m
l
k
ln
n
n
n
lm
m
l
m
ln
l
m
n
lk
m
n
n
m
ll
m
l
m
ln
k
n
o
M,2307,4.00,1.8,0.548,0.597,15,74,1,0,1,42,50
lo
k
k
n
ln
n
l
l
p
ln
j
k
m
ln
n
n
o
lj
i
n
r
n
lj
j
m
p
ln
k
l
l
lo
p
l
m
lk
m
n
m
l
lm
n
m
m
lm
m
n
k
lk
n
o
l
lo
m
l
n
l
ln
n
m
k
lk
o
p
m
ll
l
l
m
lp
o
k
k
k
ln
p
m
l
lm
m
m
m
lp
l
k
m
l
ln
n
k
k
ln
n
n
p
lm
j
m
m
ll
m
M,3283,4.00,1.8,0.552,0.600,14,74,1,0,1,42,50
o
n
k
lm
l
l
m
lq
k
k
n
lm
o
l
j
lm
p
n
l
m
lm
l
o
m
lk
m
n
o
ll
k
m
m
lo
n
l
j
l
lq
o
k
l
lm
p
l
l
ln
m
m
m
l
ll
l
o
k
lk
o
n
l
ln
m
k
n
ll
o
n
j
l
lp
l
l
n
lo
k
k
o
lo
k
j
n
lp
m
l
l
m
ln
m
l
m
lm
l
m
p
ln
k
k
m
lm
m
m
l
M,4260,4.00,1.8,0.548,0.609,16,74,1,0,1,42,50
n
ln
m
k
m
lo
p
k
j
ll
o
p
l
i
lo
n
k
n
lm
l
o
p
lj
l
m
l
ll
o
n
k
m
lm
l
m
p
lm
j
m
m
lm
o
l
k
lm
m
n
k
m
lo
o
m
l
lk
n
o
n
ll
l
l
m
lo
n
j
l
o
lo
m
j
l
ln
n
o
l
ll
m
m
k
m
lo
n
k
m
ln
k
n
o
lj
m
n
l
ln
m
m
m
m
ln
o
k
k
lo
M,5236,4.00,1.8,0.552,0.603,13,74,1,0,1,42,50
o
m
j
ll
p
o
l
ll
n
l
n
n
lm
l
l
m
ll
l
n
n
ll
m
l
o
lk
m
o
m
k
ln
m
l
n
ln
m
k
n
ln
m
o
n
ll
i
m
p
l
lk
p
m
m
ll
m
o
o
li
j
o
n
n
ll
k
n
n
lk
m
o
n
ll
l
l
l
n
lo
n
l
k
lm
n
n
n
lk
l
m
l
lm
p
m
k
ll
o
n
m
k
lo
k
k
m
ln
n
j
M,6213,4.00,1.8,0.552,0.606,14,74,1,0,1,42,50
m
lp
o
m
i
l
lo
m
m
l
lm
o
k
k
ll
p
p
k
lk
m
n
m
l
lm
m
k
n
lp
l
l
m
lk
n
o
m
lk
k
n
q
j
lj
m
p
q
ll
i
l
p
lm
m
j
o
lp
k
k
p
n
ll
m
m
l
lm
l
l
l
lm
p
l
l
n
lm
m
n
l
ln
n
m
m
ln
n
j
m
lo
m
m
m
m
lm
n
m
m
lk
m
n
n
ln
n
n
k
lm
M,7190,4.00,1.8,0.548,0.603,15,74,1,0,1,42,50
m
m
m
l
lm
o
m
l
lm
l
m
q
lm
j
m
n
ln
l
m
n
n
lk
m
o
o
ll
k
n
o
lm
m
m
k
k
lo
n
k
n
lp
m
h
l
lo
p
l
l
ln
n
l
j
m
lo
m
n
n
ll
k
n
p
ln
l
i
l
lo
n
l
m
m
lm
n
l
m
ln
n
m
n
ln
k
k
o
ll
m
m
l
m
lk
m
m
m
lo
m
l
l
lm
m
n
l
l
lj
n
M,8166,4.00,1.8,0.548,0.600,13,74,1,0,1,42,50
p
m
lk
n
l
n
ln
l
m
m
lm
l
o
o
k
li
n
p
l
li
o
n
m
lm
m
l
k
lm
m
m
m
n
ln
n
l
k
ll
n
o
o
ll
j
o
p
ll
k
k
m
o
lo
l
l
l
lm
n
m
m
lm
n
m
l
k
ln
m
m
n
P,8095.03
ll
R,6,$GPRMC,084608.416,V,,,,,2.72,276.16,050423,,,N*4F
m
o
o
ln
i
k
o
lp
m
j
m
n
ll
o
l
k
lo
l
n
m
lm
m
l
o
lm
m
m
l
j
ln
p
n
k
M,951,4.00,1.8,0.545,0.600,14,74,1,0,1,42,50
ll
o
n
k
lm
n
m
n
ll
k
m
l
o
lo
l
j
n
lo
n
k
k
ln
o
n
m
l
ll
n
m
n
lm
k
m
l
ln
n
l
j
ln
p
n
m
k
ll
p
l
k
lo
o
k
l
lk
k
q
p
lk
k
n
m
l
lm
n
m
l
lm
p
m
j
ll
p
o
j
ll
m
m
m
l
lp
o
l
k
ln
n
m
m
ln
k
l
o
l
ll
p
m
k
ll
n
o
n
ll
j
M,1927,4.00,1.8,0.548,0.597,16,74,1,0,1,42,50
m
n
lm
l
m
l
l
lo
p
k
k
ln
n
n
l
lk
m
n
p
ln
k
k
l
p
ln
l
k
l
P,879.56
lm
R,6,$GPRMC,084610.000,V,,,,,2.56,281.76,050423,,,N*4D
n
o
m
ll
l
o
p
ll
j
j
n
p
ln
i
k
n
lq
n
k
m
ll
j
o
o
m
lk
m
o
l
lm
m
n
k
lm
o
k
k
lm
n
n
o
m
lj
j
m
p
lo
l
l
l
ll
o
j
l
ln
o
n
k
l
lo
n
k
m
ln
n
n
l
lk
o
n
l
M,2904,4.00,1.8,0.548,0.609,15,74,1,0,1,42,50
ll
l
l
o
n
lm
k
m
l
lm
n
m
m
lk
n
o
k
m
ln
m
l
o
lm
j
l
n
ll
m
n
l
lm
o
m
l
m
lm
m
P,2832.66
l
R,6,$GPRMC,084611.000,V,,,,,2.55,285.61,050423,,,N*4D
l
ln
m
m
m
lm
n
o
k
li
n
q
o
k
lk
m
n
o
ll
k
m
n
lm
m
m
k
lm
n
m
l
n
ln
m
l
m
lm
l
n
m
ll
n
o
m
j
ll
m
o
n
lj
n
o
l
ll
n
o
l
ll
n
o
m
j
lk
M,3880,4.00,1.8,0.545,0.606,14,74,1,0,1,42,50
m
n
o
lm
k
l
l
lo
o
m
k
ll
n
o
m
k
ll
o
k
l
lo
p
l
l
ln
m
k
n
lq
k
j
n
o
ln
P,3809.22
l
R,6,$GPRMC,084612.000,V,,,,,2.35,286.74,050423,,,N*4F
l
n
lo
m
j
m
lo
j
m
o
l
ln
n
l
m
lm
m
n
m
lm
l
p
m
lj
l
n
n
m
lm
m
l
l
ln
m
l
n
lm
m
m
n
ln
l
k
m
m
ln
o
l
l
lm
k
n
n
lk
k
p
n
lm
m
k
k
o
lo
o
l
M,4857,4.00,1.8,0.542,0.600,14,74,1,0,1,42,50
l
ll
m
n
n
ll
k
p
n
lk
l
n
m
m
lm
l
n
m
lm
l
j
k
lr
n
j
o
o
lm
l
m
m
lm
l
l
k
lo
p
m
m
P,4785.75
ll
R,6,$GPRMC,084613.000,V,,,,,2.36,288.63,050423,,,N*45
n
m
k
n
ll
k
p
q
lj
j
m
n
ln
o
l
h
lm
n
o
n
k
ll
o
o
l
lk
k
o
o
lm
l
k
m
n
lo
l
k
l
lp
m
l
l
lm
o
n
n
ll
k
o
o
l
lk
m
p
m
ll
m
l
m
lm
M,5833,4.00,1.8,0.545,0.600,13,74,1,0,1,42,50
m
m
o
ln
k
k
m
l
ln
n
m
n
ll
j
m
m
ln
o
k
k
lm
p
l
l
m
lo
n
l
i
ln
q
n
j
P,5762.31
lm
R,6,$GPRMC,084614.000,V,,,,,2.36,286.71,050423,,,N*4F
m
m
o
n
lk
k
n
o
ll
m
m
m
ll
m
m
l
lm
m
m
l
o
ln
m
n
m
lm
l
l
k
lp
p
j
k
ln
p
n
l
k
ll
o
n
l
ll
l
l
n
ln
m
k
m
lm
o
l
m
m
ln
n
n
m
lj
m
m
o
lm
k
m
M,6810,4.00,1.8,0.545,0.597,14,74,1,0,1,42,50
m
l
lm
m
m
m
ln
m
l
l
ln
n
m
l
lm
o
n
l
o
ll
j
o
n
lk
k
m
n
lm
k
n
n
lm
l
l
m
n
lo
n
n
l
P,6738.84
lj
R,6,$GPRMC,084615.000,V,,,,,2.34,287.01,050423,,,N*4A
l
n
o
lk
l
n
m
lm
m
l
o
n
ll
i
n
q
lm
k
m
m
ln
l
l
l
m
lm
l
o
n
lm
k
m
n
ln
n
k
l
ll
q
m
k
n
lk
l
l
n
lp
l
j
n
lp
m
k
m
lm
n
o
l
n
M,7786,4.00,1.8,0.545,0.600,15,74,1,0,1,42,50
ll
k
m
p
lo
l
l
l
lm
n
n
k
lk
m
n
l
l
lm
o
n
m
lm
k
o
o
lk
l
n
m
m
ln
m
k
l
lo
o
m
i
lm
P,7715.41
o
R,6,$GPRMC,084616.000,V,,,,,2.22,287.24,050423,,,N*49
o
k
lk
m
o
n
l
lm
n
l
j
lp
o
k
l
ln
m
n
m
lj
m
n
o
n
ln
l
l
m
ll
n
l
l
ln
n
m
l
ll
o
m
l
m
ll
m
p
o
ll
l
k
m
ll
m
m
o
l
lm
n
l
l
lm
m
M,571,4.00,1.8,0.548,0.603,14,74,1,0,1,42,50
l
m
ln
l
l
o
ll
l
n
m
k
lm
o
n
l
lm
n
n
k
lj
o
p
l
ll
n
l
m
p
lm
k
k
n
lo
m
k
l
ln
p
n
k
lm
o
l
l
n
lm
j
P,499.94
o
R,6,$GPRMC,084617.000,V,,,,,2.25,287.49,050423,,,N*44
n
ll
m
l
m
ln
m
m
m
m
ll
m
p
m
lj
l
o
o
ll
l
k
o
lo
j
l
n
n
lo
l
k
m
lm
l
n
p
ll
m
n
n
lk
l
n
m
m
ll
l
m
l
ln
m
l
m
M,1548,4.00,1.8,0.552,0.597,15,73,2,0,1,42,50
ll
n
p
m
ln
k
l
n
o
lo
l
k
m
lo
o
k
k
ln
o
n
j
m
ln
n
l
l
lm
l
n
p
lo
l
k
m
ln
m
P,1476.50
j
R,6,$GPRMC,084618.000,V,,,,,1.91,290.83,050423,,,N*47
l
q
ln
l
k
m
lp
n
k
j
lm
o
m
l
lm
p
m
m
m
ln
m
k
n
lm
m
n
l
ll
l
n
n
ll
m
n
l
k
ln
m
l
n
lm
n
m
m
ln
i
l
p
m
lj
n
o
l
ll
o
o
l
li
n
p
n
lk
k
M,2524,4.00,1.8,0.545,0.594,15,74,1,0,1,42,50
m
o
o
lk
m
m
l
lm
m
l
n
lo
l
l
m
ll
n
m
l
l
ln
n
j
m
lo
n
k
m
lo
l
k
m
lo
m
j
n
q
ll
j
P,2453.03
l
R,6,$GPRMC,084619.000,V,,,,,1.77,292.10,050423,,,N*46
q
ln
h
k
o
lq
l
j
o
q
lk
i
m
r
lk
j
p
p
li
k
o
l
lk
p
o
k
m
ll
n
n
l
lm
n
m
n
lm
n
m
j
lm
m
o
n
k
ll
n
n
n
lo
l
k
m
lp
n
k
m
ll
n
n
l
M,3501,4.00,1.8,0.555,0.597,14,74,1,0,1,42,50
k
ln
p
l
j
lm
o
o
k
ll
m
o
m
n
lm
m
l
l
lo
n
j
m
lp
k
k
n
lo
o
l
l
n
lm
l
m
m
ln
m
l
n
lm
k
P,3429.59
m
R,6,$GPRMC,084620.000,V,,,,,1.83,287.82,050423,,,N*48
n
ln
o
n
j
l
ln
p
m
m
lk
k
o
o
ll
l
m
o
lk
m
m
n
m
ll
l
n
n
ln
m
l
n
ln
l
l
o
m
ll
n
m
l
ll
l
o
o
lk
l
k
l
ln
o
o
l
l
lm
n
o
m
lk
M,4477,4.00,1.8,0.548,0.600,15,74,1,0,1,42,50
k
o
n
lo
j
j
n
ln
n
m
j
n
ln
o
l
m
lm
l
n
o
ll
l
l
m
lm
n
m
l
l
ln
o
k
l
lj
n
o
o
ln
k
j
l
P,4406.12
R,6,$GPRMC,084621.000,V,,,,,1.86,285.50,050423,,,N*41
q
ln
l
l
m
lo
m
k
k
lp
o
k
j
lm
r
o
j
k
lo
l
m
l
lm
o
m
k
ll
n
m
k
lm
p
k
m
o
ln
j
k
m
lo
m
k
n
ln
n
n
k
lk
m
p
n
j
lk
n
n
m
ll
l
n
M,5454,4.00,1.8,0.548,0.603,13,74,1,0,1,42,50
p
lj
m
n
m
m
ll
l
o
m
lj
l
o
m
lk
m
m
p
ln
j
l
n
o
lm
l
l
j
lm
q
l
j
ln
n
n
j
ll
n
o
o
m
lk
P,5382.69
R,6,$GPRMC,084622.000,V,,,,,1.91,283.74,050423,,,N*44
m
l
n
lm
m
l
l
lo
n
l
l
m
ll
m
n
n
ln
n
l
m
ln
o
l
k
lm
m
n
m
m
ll
n
n
m
lm
j
m
q
lm
j
l
p
lp
l
i
l
q
lo
l
k
k
lo
l
m
l
ln
m
k
l
lo
M,6433,4.00,1.8,0.542,0.594,16,74,1,0,1,42,50
q
l
k
n
ll
m
l
n
lk
n
n
l
lm
p
m
j
ln
n
l
m
o
ll
l
n
n
lm
k
l
p
lq
i
j
o
n
lj
l
p
o
lm
l
m
P,6359.22
n
R,6,$GPRMC,084623.000,V,,,,,1.90,285.46,050423,,,N*43
lm
l
n
m
ln
m
m
m
l
lm
l
n
n
ln
m
l
m
lm
m
k
n
ln
n
l
l
k
ln
p
l
k
lm
n
o
n
lj
m
o
m
lm
k
l
n
m
ln
o
l
k
ln
n
l
m
ll
n
n
n
j
li
l
M,7407,4.00,1.8,0.548,0.600,15,74,1,0,1,42,50
o
q
lm
j
k
n
lq
o
i
k
ln
q
l
l
m
lm
o
n
k
lk
m
n
l
lo
n
l
l
lk
m
o
o
l
lk
m
o
m
lk
m
o
l
lo
l
P,7335.78
R,6,$GPRMC,084624.000,V,,,,,1.83,285.17,050423,,,N*42
m
m
lk
n
n
l
n
lo
k
j
p
lm
l
m
k
ll
p
n
m
l
lm
l
n
n
lm
j
n
o
ll
l
m
m
ln
m
m
l
l
lo
n
l
j
ln
o
l
m
lm
k
k
o
lp
k
j
o
p
lm
l
k
n
M,192,4.00,1.8,0.545,0.600,15,74,1,0,1,42,50
ln
n
k
l
ln
p
k
l
ll
l
q
o
k
lk
l
n
l
ll
n
o
l
ll
l
o
n
j
ln
m
m
l
lm
o
k
m
lm
m
n
m
lm
l
l
p
n
P,120.31
lj
R,6,$GPRMC,084625.000,V,,,,,1.70,286.12,050423,,,N*49
m
n
l
ll
m
n
k
lm
o
m
m
ll
m
m
m
m
ln
m
m
m
lm
k
m
o
lm
n
n
l
lm
n
k
j
n
lm
l
n
n
lm
m
m
l
ll
l
l
q
n
ll
m
n
m
ln
n
l
j
lm
n
M,1168,4.00,1.8,0.552,0.606,13,74,1,0,1,42,50
l
n
lm
k
m
o
m
lk
l
o
n
lm
m
q
l
lk
o
m
j
lk
n
o
k
m
lk
m
n
o
lk
k
m
p
ll
k
l
m
m
lm
o
m
n
P,1096.88
lm
R,6,$GPRMC,084626.000,V,,,,,1.73,284.47,050423,,,N*4B
k
m
n
ln
j
m
n
ln
l
l
n
m
lk
o
n
l
lm
l
k
n
ln
o
k
m
lo
l
k
m
o
ll
m
o
n
lj
l
n
l
lm
n
l
m
ln
n
m
l
l
lm
n
o
k
ll
l
n
m
lo
m
j
m
M,2145,4.00,1.8,0.545,0.603,17,74,1,0,1,42,50
lp
l
m
l
m
ll
m
o
n
lk
k
p
m
ln
m
i
n
p
lk
l
m
n
lo
o
l
l
lk
m
o
n
lk
l
l
o
n
lm
n
o
k
ll
l
P,2073.41
R,6,$GPRMC,084627.000,V,,,,,1.70,284.72,050423,,,N*4F
n
o
lo
l
j
m
lr
n
j
j
p
lp
k
n
m
ll
n
m
m
lm
k
n
p
ln
j
k
n
n
ll
o
p
l
li
m
m
m
ln
n
m
m
n
lm
n
n
m
ll
k
l
o
lp
k
k
k
lo
p
m
k
j
lp
M,3121,4.00,1.8,0.545,0.600,14,74,1,0,1,42,50
n
l
l
lm
q
n
k
lk
n
o
n
lm
l
m
l
m
lm
n
o
m
lk
l
l
m
lo
l
j
l
lq
p
m
h
l
lq
m
j
k
lo
o
l
P,3049.97
l
R,6,$GPRMC,084628.000,V,,,,,1.73,285.67,050423,,,N*46
ll
m
o
o
k
lk
m
o
n
ll
l
n
o
ln
j
l
p
lm
l
j
m
m
lm
o
l
k
ln
n
p
n
lj
l
o
o
ll
k
o
l
m
lm
l
o
o
lk
j
o
o
lm
l
j
k
lq
p
m
k
j
lp
q
m
M,4098,4.00,1.8,0.545,0.600,14,74,1,0,1,42,50
k
lj
k
p
p
ll
n
m
l
m
lo
m
i
l
lo
n
k
l
lo
o
j
k
lp
q
k
j
o
lo
l
l
l
lo
n
l
k
lm
m
o
m
ll
P,4026.50
m
E,GPS_startup
R,6,$GPRMC,084629.000,V9Ç…3¡ÿ$PMTK001,10,1*03
n
n
k
lj
o
p
o
lk
j
m
o
ln
l
k
l
k
lp
p
l
l
lk
o
m
j
ll
p
m
n
ln
k
k
n
p
lo
j
l
o
lm
l
l
l
lk
o
n
l
lm
l
m
n
m
ll
m
l
m
lm
m
l
n
lm
M,5074,4.00,1.8,0.545,0.600,386,35,40,0,1,42,50
m
m
k
lo
n
m
m
m
lm
n
l
o
ll
k
m
j
ln
o
m
m
lk
l
p
l
l
lm
n
m
m
ln
m
l
n
ll
m
n
m
j
ln
n
P,5003.06
R,6,$GPRMC,084630.000,V,,,,,1.66,293.22,050423,,,N*4D
l
l
lo
m
l
n
lm
k
n
n
ll
l
m
o
m
lk
j
n
p
ll
l
k
o
ln
l
k
n
lo
m
j
m
p
ln
k
k
l
ln
o
m
k
ll
o
n
n
ll
l
m
n
m
ln
l
k
o
lm
j
m
m
ln
n
n
M,6051,4.00,1.8,0.545,0.600,14,74,1,0,1,42,50
m
j
ll
o
m
l
lm
n
m
l
ln
o
k
m
lm
j
m
r
m
li
m
p
n
ll
n
k
k
lo
p
l
j
ll
q
o
j
l
lo
k
n
n
ll
k
P,5979.59
m
R,6,$GPRMC,084631.000,V,,,,,1.65,292.46,050423,,,N*4C
p
ln
k
n
m
lj
n
o
n
m
lk
m
o
k
lm
k
l
p
lm
n
m
l
o
lp
l
i
m
lo
l
m
o
lm
l
l
l
ll
l
o
n
n
lm
j
k
o
lo
o
l
k
ln
o
l
l
lk
n
o
p
l
M,7027,4.00,1.8,0.548,0.600,15,74,1,0,1,42,50
ll
k
P,6956.16
l
R,6,$GPRMC,084632.000,V,,,,,1.62,292.55,050423,,,N*4A
m
lm
o
l
n
lm
l
m
n
ln
m
m
n
l
lm
p
m
l
lm
l
n
m
ll
l
n
n
m
lm
k
l
o
lm
m
m
k
lm
o
n
m
lm
k
l
p
o
ll
l
m
n
ll
j
l
o
ln
m
m
k
lm
o
l
n
m
ll
m
n
n
ll
l
n
l
ll
o
m
j
lm
p
m
m
k
lm
p
n
k
lm
o
m
k
ln
n
k
m
n
lo
k
l
m
ln
n
M,8004,4.00,1.8,0.548,0.606,17,73,2,0,1,42,50
m
k
lj
q
o
l
ll
m
n
n
j
lm
n
p
l
lj
o
o
m
lk
l
l
n
lm
n
n
l
o
ll
l
n
k
ln
o
l
n
lo
k
j
o
ln
n
m
l
n
ln
P,7932.69
m
R,6,$GPRMC,084633.000,V,,,,,1.54,295.94,050423,,,N*44
n
n
li
k
o
o
ln
l
l
m
n
lo
k
l
n
lo
n
l
j
lk
p
o
l
ll
l
m
m
k
lm
o
m
l
lm
o
m
m
ll
l
m
o
ll
m
o
l
m
lk
m
m
n
ln
k
n
n
M,789,4.00,1.8,0.548,0.600,15,74,1,0,1,42,50
ll
n
k
l
o
lm
m
m
n
lm
l
o
k
lk
p
n
k
lj
o
m
l
o
lo
k
l
l
lo
n
m
k
lm
o
n
k
lm
n
k
m
n
ln
m
k
n
ll
l
l
P,717.25
o
R,6,$GPRMC,084634.000,V,,,,,1.51,297.99,050423,,,N*49
lm
n
n
k
ln
l
l
n
m
ll
n
m
l
ln
n
m
m
lm
k
m
p
ln
l
m
j
m
lo
l
n
o
ll
k
o
n
lk
m
n
k
m
ln
m
n
m
lj
m
o
l
ln
m
l
m
lm
m
M,1765,4.00,1.8,0.548,0.597,15,74,1,0,1,42,50
l
o
m
lk
k
n
o
lm
l
n
n
ln
k
j
n
lp
k
m
o
m
lk
m
o
l
ll
n
m
m
lm
n
k
l
lq
l
i
p
o
lk
i
m
o
ln
P,1693.78
R,6,$GPRMC,084635.000,V,,,,,1.58,289.66,050423,,,N*4E
l
n
m
ll
o
m
i
n
lp
k
m
n
lk
n
n
m
ll
n
k
j
lq
n
m
m
l
ln
l
l
n
ln
l
m
j
lm
p
n
k
lk
n
o
l
l
lm
m
o
k
lm
m
l
l
lm
n
n
m
lk
m
m
n
M,2742,4.00,1.8,0.548,0.594,14,74,1,0,1,42,50
n
ll
m
o
n
lk
k
n
m
lm
m
n
m
m
ln
l
m
l
lm
m
l
n
lm
n
l
m
ll
n
n
k
j
ln
r
n
j
ll
m
o
o
ll
P,2670.34
R,6,$GPRMC,084636.000,V,,,,,1.59,287.95,050423,,,N*4E
k
k
n
lo
n
m
j
k
ln
o
l
m
ll
p
n
l
lk
k
n
n
ln
o
k
j
o
lo
m
n
k
ll
p
n
m
lm
l
l
m
n
lm
o
n
k
lm
n
m
n
lk
o
o
k
lj
n
m
o
n
ll
m
n
m
lk
M,3718,4.00,1.8,0.545,0.597,15,74,1,0,1,42,50
l
l
o
ln
m
m
l
lm
m
l
m
o
lo
j
k
n
lo
m
l
l
lm
p
o
l
lk
k
n
m
l
lm
m
p
p
lj
j
l
p
lo
l
l
l
o
P,3646.87
R,6,$GPRMC,084637.000,V,,,,,1.51,288.38,050423,,,N*4F
ln
i
m
n
lq
m
f
n
lr
m
k
j
lo
p
m
j
l
lm
p
o
k
lj
l
o
n
lj
m
o
o
ln
m
l
k
l
lp
n
l
m
lm
m
o
n
lk
j
n
o
ll
m
m
m
o
ln
k
l
m
lm
l
n
M,4695,4.00,1.8,0.555,0.600,14,74,1,0,1,42,50
n
ll
l
m
l
n
lm
m
m
m
lm
k
n
p
lk
m
m
n
lm
n
k
l
o
lm
m
m
m
lm
m
l
m
lp
n
l
k
ln
m
l
p
k
lk
m
o
m
lm
P,4623.44
l
R,6,$GPRMC,084638.000,V,,,,,1.47,290.07,050423,,,N*42
k
o
lp
l
l
n
ll
l
n
p
k
lk
o
o
l
lj
l
n
p
lm
j
k
n
o
lo
l
l
n
ln
l
k
k
ln
o
m
l
lm
l
n
l
m
ll
m
p
m
ll
k
n
p
lm
j
l
o
lm
M,5671,4.00,1.8,0.555,0.597,14,73,2,0,1,42,50
o
n
l
m
ll
l
k
n
lo
n
m
j
lm
o
o
m
lk
l
n
n
m
ll
l
o
n
ln
l
k
m
ln
n
l
l
n
ln
l
m
n
ln
k
n
n
lk
k
P,5599.97
m
R,6,$GPRMC,084639.000,V,,,,,1.43,291.57,050423,,,N*43
o
ln
l
m
o
l
ll
l
n
m
ln
m
l
k
lm
p
o
k
lk
l
n
q
k
lj
m
o
o
ln
n
j
j
lp
p
l
l
ll
m
k
n
n
ln
l
l
n
lm
k
n
m
ln
m
i
n
p
ln
j
M,6648,4.00,1.8,0.548,0.603,14,74,1,0,1,42,50
l
n
ln
n
l
n
lm
l
l
n
lo
l
j
m
k
lp
p
k
l
ln
n
m
m
ll
l
m
m
ll
m
n
o
l
lj
l
o
n
lm
k
l
m
lm
o
n
l
lm
P,6576.53
l
R,6,$GPRMC,084640.000,V,,,,,1.40,294.15,050423,,,N*4D
l
m
o
lo
j
j
n
lp
n
m
j
lm
o
m
k
n
ln
l
m
o
lk
m
n
l
lm
m
m
m
ll
l
n
p
m
lj
n
m
n
lo
l
k
m
ln
k
l
m
ln
m
n
o
l
ll
m
m
k
M,7625,4.00,1.8,0.555,0.609,14,74,1,0,1,42,50
lm
o
m
k
ln
m
l
m
lm
k
p
o
k
lk
m
n
o
ll
j
n
p
lk
k
k
o
o
ll
l
o
n
lm
k
m
n
lm
m
o
m
lk
n
n
l
l
lo
m
P,7553.06
l
R,6,$GPRMC,084641.000,V,,,,,1.39,293.88,050423,,,N*41
n
ln
k
m
m
ll
k
j
q
lo
j
n
n
l
lo
m
j
m
lp
m
k
n
ln
m
n
n
lk
m
n
m
l
ll
o
n
l
lm
m
k
m
lo
m
l
m
o
lj
k
p
n
lk
m
n
n
lm
l
M,409,4.00,1.8,0.548,0.606,15,74,1,0,1,42,50
o
m
lj
n
o
l
k
lm
m
o
n
ll
k
n
n
ll
n
l
k
ln
q
n
i
l
ll
l
o
n
lm
m
k
k
lo
n
l
m
lm
n
l
o
l
lk
k
o
n
lm
P,337.63
l
R,6,$GPRMC,084642.000,V,,,,,1.42,290.31,050423,,,N*4F
m
m
ln
m
m
m
k
lm
n
l
m
lk
n
o
m
ll
l
n
o
ll
m
n
l
m
lo
o
i
k
ln
q
k
j
ln
n
m
l
lm
n
m
k
n
lm
l
o
m
lk
n
o
l
ll
n
n
m
M,1386,4.00,1.8,0.548,0.603,15,74,1,0,1,42,50
lm
j
m
n
o
lk
m
m
m
lo
m
j
l
lo
o
k
k
o
ln
m
l
m
lo
l
m
l
lm
n
l
m
ln
n
l
m
n
ll
m
m
l
ll
n
n
m
lj
k
r
o
P,1314.16
ll
R,6,$GPRMC,084643.000,V,,,,,1.44,291.25,050423,,,N*4C
m
k
l
o
lo
k
j
n
lo
m
n
k
ln
p
k
l
ll
m
p
l
k
lm
q
p
k
lj
n
n
m
lo
n
k
k
n
ln
m
l
k
lm
o
p
l
lj
k
p
o
ll
k
l
l
p
lq
M,2362,4.00,1.8,0.545,0.600,14,74,1,0,1,42,50
i
k
q
lo
m
k
i
lm
r
n
j
ll
o
n
m
o
ln
j
m
n
lm
l
n
l
lm
o
m
l
lm
n
m
l
m
lm
m
m
l
ln
m
k
o
lo
k
m
l
n
P,2290.72
lq
R,6,$GPRMC,084644.000,V,,,,,1.43,299.04,050423,,,N*47
k
k
m
ln
p
n
l
lm
k
m
m
lm
m
m
n
o
lm
k
m
n
ll
n
n
l
lm
l
n
n
lm
i
o
q
m
ll
i
m
r
ln
j
l
n
lm
n
n
m
lk
l
m
n
n
lk
l
n
M,3339,4.00,1.8,0.548,0.600,14,74,1,0,1,42,50
m
lo
k
k
p
lo
l
m
l
l
lo
n
l
l
ll
m
o
l
ll
m
m
n
ln
n
l
l
m
lm
l
n
n
lj
j
o
p
ln
l
m
m
ll
m
j
n
n
ln
P,3267.25
m
R,6,$GPRMC,084645.000,V,,,,,1.44,300.70,050423,,,N*43
m
l
lm
m
m
l
lm
n
n
l
lk
o
l
n
p
lk
k
m
o
lm
j
m
n
lo
k
i
n
p
ln
m
k
l
ln
m
n
l
lj
o
n
m
lm
j
n
m
l
ln
m
l
n
ln
n
l
o
ln
M,4315,4.00,1.8,0.545,0.600,14,74,1,0,1,42,50
k
k
m
lm
n
m
k
k
ln
n
o
m
lj
l
n
m
ln
l
m
m
lm
n
n
k
n
lo
j
k
n
lo
m
k
m
ln
m
l
m
m
lm
l
m
m
lm
m
m
m
P,4243.81
lm
R,6,$GPRMC,084646.000,V,,,,,1.47,291.56,050423,,,N*4E
l
l
n
l
lm
n
n
k
lo
m
i
n
lm
m
r
l
lk
k
n
m
ln
l
j
n
m
lm
m
l
k
ln
q
l
k
lm
p
n
l
j
lm
m
n
n
ll
l
n
p
lk
i
o
o
ll
k
l
M,5292,4.00,1.8,0.548,0.612,15,74,1,0,1,42,50
m
m
ln
m
m
k
ll
o
n
m
ll
l
n
m
lm
m
n
l
o
ln
m
k
l
ln
o
m
k
lm
n
m
m
lo
l
m
m
l
lm
n
l
j
lm
o
m
n
ln
l
l
P,5220.34
m
R,6,$GPRMC,084647.000,V,,,,,1.50,292.26,050423,,,N*4D
ln
n
m
l
m
lm
l
m
n
lm
m
l
l
lo
m
n
l
m
ln
n
l
m
lm
o
l
l
ln
l
l
n
ll
m
p
o
i
ll
o
l
n
lp
k
k
m
ln
m
n
m
lk
m
q
o
j
M,6268,4.00,1.8,0.545,0.597,14,74,1,0,1,42,50
lk
n
n
n
lm
j
k
o
ln
m
l
m
lm
m
n
o
m
lj
m
o
n
ll
n
n
k
lk
o
m
j
o
lp
n
l
l
lm
m
n
n
lm
k
m
p
ll
j
m
o
P,6196.91
m
R,6,$GPRMC,084648.000,V,,,,,1.52,292.93,050423,,,N*4E
ln
m
m
k
lo
n
l
m
ln
m
k
p
lm
k
m
p
m
ll
m
l
l
ln
m
o
l
ll
o
l
l
lo
n
m
m
n
lk
k
o
n
ln
n
k
n
ln
k
m
n
n
lo
l
i
m
lr
o
M,7245,4.00,1.8,0.548,0.600,14,74,1,0,1,42,50
k
l
ll
m
l
o
ln
i
k
p
p
lm
l
k
o
ln
k
l
n
lm
m
o
m
lj
n
n
l
n
lo
m
k
n
ln
j
m
p
ll
l
n
l
lm
n
l
k
m
lo
P,7173.44
o
R,6,$GPRMC,084649.000,V,,,,,1.53,294.14,050423,,,N*47
k
n
ll
m
m
n
lm
m
m
l
m
ln
o
j
i
lo
m
l
n
lo
l
k
m
lp
l
m
l
l
ln
m
n
m
ln
l
m
l
ll
n
n
m
ln
m
n
k
n
lm
k
k
o
lo
l
m
l
M,30,4.00,1.8,0.548,0.600,15,74,1,0,1,42,50
ll
m
n
m
ll
l
m
o
n
lk
l
m
l
lm
o
m
l
ll
m
n
m
k
lm
n
m
m
lm
n
k
m
ln
n
k
l
lo
m
l
l
l
lm
n
l
n
ln
l
l
P,8150.00
l
E,GPS_startup
R,6,$GPRMC,084650.000,V,,,,,1.53,295
lm
l
n
m
ll
l
n
n
j
lo
p
l
l
lm
l
n
m
lm
n
m
j
ll
m
m
n
n
ll
l
n
n
ln
j
k
q
lo
i
h
o
q
ln
k
l
l
ln
l
k
k
lm
q
o
l
lk
n
M,1006,4.00,1.8,0.548,0.597,386,35,40,0,1,42,50
n
m
m
lm
n
m
n
ll
k
m
p
ln
k
m
n
lj
m
m
n
m
ll
m
l
m
lm
p
n
l
ll
l
m
m
lm
m
k
n
n
ll
l
o
n
lk
l
o
o
P,934.53
ln
R,6,$GPRMC,084651.000,V,,,,,1.54,294.79,050423,,,N*42
i
m
m
p
ln
k
l
m
ln
n
m
k
ll
n
m
n
ll
m
p
m
l
lm
k
m
m
lm
m
o
k
ll
n
n
k
ln
r
m
j
l
ln
m
l
n
lk
j
p
n
lo
n
m
m
l
lm
n
l
M,1983,4.00,1.8,0.548,0.600,16,74,1,0,1,42,50
m
ln
l
m
m
lk
m
p
m
ll
m
n
m
n
lk
l
n
o
lm
l
l
o
ln
j
l
o
lp
m
l
k
k
lm
o
m
n
ln
l
m
n
lm
m
l
k
lm
o
P,1911.09
o
R,6,$GPRMC,084652.000,V,,,,,1.54,295.95,050423,,,N*42
m
l
lk
n
o
m
ln
k
l
p
ll
k
l
n
ln
n
k
m
n
ln
m
m
j
lm
o
o
l
ll
m
n
n
l
ll
m
k
m
lo
l
k
n
lo
n
m
k
ln
n
l
n
l
ln
p
l
i
ll
M,2959,4.00,1.8,0.548,0.603,13,74,1,0,1,42,50
p
n
l
lm
m
l
l
lm
m
m
n
n
lm
j
n
n
lk
o
q
k
lk
n
o
m
lk
i
o
q
j
lm
o
m
k
lm
m
m
l
lm
n
k
k
o
lo
j
l
o
ln
m
m
k
P,2887.62
lm
R,6,$GPRMC,084653.000,V,,,,,1.56,293.19,050423,,,N*43
m
n
m
ll
l
n
o
l
lm
n
n
m
lk
n
m
p
lm
j
j
j
lp
q
n
k
k
ll
p
l
k
lm
o
m
k
lk
n
p
m
lj
l
n
m
o
lm
l
k
l
ln
o
j
M,3936,4.00,1.8,0.545,0.612,15,74,1,0,1,42,50
l
ln
n
m
j
m
lo
o
m
j
lm
o
n
k
lk
o
n
l
lm
l
k
n
n
ll
l
n
o
lk
k
m
o
ln
m
m
n
lm
l
m
m
m
lm
l
m
n
ll
o
l
k
ln
n
P,3864.19
l
R,6,$GPRMC,084654.000,V,,,,,1.60,288.79,050423,,,N*4D
m
lm
m
m
m
n
ln
l
m
m
ll
n
l
o
lo
k
l
l
n
lo
l
l
m
lo
l
j
n
lo
n
l
j
ll
p
n
k
o
ln
k
k
q
ln
i
m
o
lo
n
k
m
ln
M,4912,4.00,1.8,0.545,0.603,14,74,1,0,1,42,50
k
n
n
k
ll
p
l
l
lp
l
j
l
lo
m
l
m
ll
m
o
m
l
lm
l
n
n
lm
l
m
o
lm
k
l
p
m
lk
k
o
p
ll
k
m
m
lm
l
n
l
lm
n
m
k
n
lo
P,4840.75
m
R,6,$GPRMC,084655.000,V,,,,,1.59,294.58,050423,,,N*48
l
l
ln
l
m
n
ll
n
m
l
lm
l
m
o
n
ll
o
o
k
lm
n
k
k
ln
p
l
l
n
ln
n
k
k
ll
o
n
k
lm
o
n
k
lm
p
o
k
j
lo
n
M,5889,4.00,1.8,0.545,0.603,14,74,1,0,1,42,50
l
m
ln
n
m
l
lk
m
p
m
lj
l
o
o
o
ll
i
m
o
ln
o
m
l
ln
m
n
m
lk
m
o
o
k
lj
n
q
l
lj
l
n
o
lo
m
i
n
lo
P,5817.28
R,6,$GPRMC,084656.000,V,,,,,1.57,301.01,050423,,,N*44
n
k
k
m
ln
n
m
m
lm
l
o
m
lm
k
m
o
o
lm
m
m
k
ll
o
p
m
lk
m
n
n
ll
m
l
l
l
lm
o
l
n
ln
o
m
l
lk
n
p
m
lj
l
n
n
n
lm
n
l
l
M,6866,4.00,1.8,0.545,0.597,14,74,1,0,1,42,50
ln
o
l
k
ln
o
m
m
ln
l
k
m
n
lq
n
j
k
ln
m
l
m
lm
n
l
l
l
lm
o
l
m
ln
n
j
l
ln
p
o
o
lj
j
n
o
m
lk
m
o
P,6793.81
R,6,$GPRMC,084657.000,V,,,,,1.55,297.05,050423,,,N*4D
n
ln
j
o
m
li
n
o
l
lj
l
p
p
n
lj
l
m
o
ln
k
k
o
ln
l
l
n
lk
n
p
k
k
lm
p
n
k
lk
l
o
m
lm
m
k
n
n
lk
m
m
l
ln
n
k
m
lm
o
M,7842,4.00,1.8,0.545,0.597,14,74,1,0,1,42,50
l
n
lm
k
k
m
n
lo
l
n
o
ll
i
n
o
lm
m
m
l
ll
l
m
m
o
lo
k
m
m
lm
l
m
n
ll
l
m
m
ll
k
p
n
k
ll
m
n
n
P,7770.37
lm
R,6,$GPRMC,084658.000,V,,,,,1.51,295.98,050423,,,N*40
l
m
n
ll
m
m
m
n
ll
m
k
m
lp
l
m
k
ll
p
m
m
lk
q
l
i
n
lp
n
k
l
ll
o
n
k
lm
n
n
m
ll
m
m
l
o
lm
j
m
n
lo
m
k
l
ll
n
o
m
M,627,4.00,1.8,0.548,0.600,18,73,2,0,1,42,50
lk
p
o
j
m
ll
n
m
n
lm
k
m
o
ll
l
m
l
l
lm
l
o
n
ll
m
m
m
lm
n
l
l
lm
l
n
m
m
ln
l
n
m
lk
l
o
m
lk
o
m
m
lm
n
k
l
P,554.94
o
R,6,$GPRMC,084659.000,V,,,,,1.46,294.14,050423,,,N*42
lo
k
m
n
ln
l
l
m
ln
m
k
n
lm
l
o
l
l
lm
j
l
p
lp
m
l
k
ll
n
o
o
l
lk
m
m
l
lo
n
k
l
ln
o
p
j
lj
m
o
m
l
lm
M,1603,4.00,1.8,0.545,0.594,13,73,2,0,1,42,50
l
l
o
lp
n
j
l
ln
n
l
i
ln
m
n
n
m
lm
l
o
n
lj
k
n
p
lm
i
m
n
lm
o
k
l
l
lm
m
n
n
lj
m
o
m
ln
m
n
l
P,1531.47
l
R,6,$GPRMC,084700.000,V,,,,,1.43,294.46,050423,,,N*4D
lm
o
n
m
lk
m
m
m
lm
n
n
l
lm
n
l
m
m
lk
m
p
o
lk
i
o
o
lm
m
m
j
lm
q
l
m
n
ll
m
m
m
ln
n
l
k
lo
n
l
m
lm
l
o
q
l
lk
l
n
M,2580,4.00,1.8,0.548,0.600,14,74,1,0,1,42,50
n
ll
m
j
n
lp
n
j
m
l
lm
m
n
m
ln
l
n
n
ll
l
n
o
lo
k
l
p
l
lk
m
p
n
lk
k
o
n
ll
o
p
m
lh
n
p
k
l
ln
l
m
o
P,2508.00
ll
R,6,$GPRMC,084701.000,V,,,,,1.39,296.13,050423,,,N*43
l
p
m
lk
n
m
k
ln
l
l
o
m
lm
n
m
n
ln
l
l
k
ln
m
k
m
n
ln
m
o
o
li
j
p
n
lk
m
o
j
lk
n
m
n
m
ln
n
j
n
ln
l
n
n
lk
M,3556,4.00,1.8,0.545,0.600,16,73,2,0,1,42,50
k
n
n
ln
n
k
k
l
ln
m
n
n
li
l
p
m
lk
n
m
n
lp
k
k
m
l
lo
n
k
n
ln
j
l
o
ln
m
m
n
l
lm
k
n
o
lm
l
l
n
P,3484.56
ln
R,6,$GPRMC,084702.000,V,,,,,1.36,299.96,050423,,,N*4D
o
k
j
ln
m
l
n
o
ll
k
n
m
ll
n
l
k
lp
n
j
n
ln
l
l
p
l
ll
l
m
m
ln
m
k
m
lq
o
j
l
lo
k
n
l
l
ll
n
o
n
li
j
o
r
lm
l
n
M,4533,4.00,2.1,0.545,0.594,14,74,1,0,1,42,50
i
m
lq
o
k
j
lo
o
l
k
ll
m
m
n
ln
l
k
m
q
ln
j
o
m
ll
m
n
n
lk
l
m
o
lp
m
j
l
p
ll
m
n
l
lk
m
p
n
lk
k
m
P,4461.12
o
R,6,$GPRMC,084703.000,V,,,,,1.32,300.21,050423,,,N*45
lm
l
p
k
k
lo
o
l
k
ln
o
m
k
lm
o
o
l
n
ln
l
k
l
lp
m
k
l
lp
l
l
q
lm
k
k
m
n
lq
l
j
l
lo
l
m
m
lm
l
n
o
ln
l
l
o
n
M,5510,4.00,1.8,0.545,0.597,14,74,1,0,1,42,50
lj
j
l
n
lo
o
m
l
lk
n
m
k
lm
o
k
l
m
ll
o
o
l
li
m
q
m
lk
k
o
m
l
lm
m
n
l
lm
n
m
l
lm
m
k
o
lo
l
m
l
m
P,5437.66
lp
R,6,$GPRMC,084704.000,V,,,,,1.28,298.87,050423,,,N*45
l
l
m
lm
m
n
m
ll
k
m
o
lo
l
i
l
o
lo
k
i
m
lp
q
l
j
lj
m
q
n
lj
j
o
p
m
ln
l
k
n
lm
m
l
l
ll
l
o
o
m
lk
k
m
n
lm
n
M,6486,4.00,2.1,0.548,0.603,15,74,1,0,1,42,50
l
l
lm
o
o
l
lk
o
k
k
o
ln
j
n
o
ll
j
m
n
ln
o
l
m
ln
l
k
n
m
lk
m
o
l
ln
l
i
n
ln
m
o
l
lm
m
n
l
k
lk
m
P,6414.19
p
R,6,$GPRMC,084705.000,V,,,,,1.11,300.67,050423,,,N*40
n
lm
j
l
p
lo
k
l
l
m
ln
m
m
n
ll
k
l
o
lo
j
l
p
lk
m
m
m
o
lo
j
j
p
ln
l
n
m
lm
k
n
o
ll
k
k
o
p
lk
j
m
o
lm
p
m
j
M,7463,4.00,1.8,0.548,0.606,15,74,1,0,1,42,50
lk
m
n
p
lm
m
l
l
m
lo
m
k
l
lp
m
j
o
lm
l
o
m
m
lm
m
l
k
ll
n
m
n
ln
k
m
n
ln
m
n
l
k
ln
p
l
k
lm
l
m
m
ll
P,7390.75
n
R,6,$GPRMC,084706.000,V,,,,,1.12,303.84,050423,,,N*4E
n
n
ll
m
l
j
o
lo
o
l
m
ln
k
l
m
lm
n
m
n
ln
k
m
m
m
lo
o
l
l
ll
o
n
j
ln
o
l
m
l
ln
p
l
l
lm
o
n
k
lm
n
n
k
lk
n
M,247,4.00,1.8,0.548,0.603,13,74,1,0,1,42,50
m
o
m
lm
m
l
m
ln
o
m
m
ll
l
n
n
lm
l
m
p
k
lj
n
p
o
lm
j
k
o
lo
m
k
n
lm
l
n
m
m
ll
n
m
m
lm
k
n
n
ln
n
k
P,175.31
m
R,6,$GPRMC,084707.000,V,,,,,1.13,300.41,050423,,,N*44
o
lm
l
o
m
lm
l
m
k
ln
o
m
m
ln
l
k
n
n
lj
l
o
n
lm
m
m
l
ll
l
l
q
lm
l
l
p
n
ll
n
k
l
ln
n
m
n
lo
k
k
m
ln
l
m
n
M,1224,4.00,2.1,0.548,0.603,15,74,1,0,1,42,50
l
ll
m
n
n
ln
k
k
n
lo
n
m
k
j
lm
p
m
k
ll
o
o
m
lk
n
l
m
lo
j
k
p
o
ll
n
m
k
lk
o
o
m
li
m
p
m
lk
m
o
o
l
P,1151.84
ll
R,6,$GPRMC,084708.000,V,,,,,1.10,299.58,050423,,,N*41
n
l
k
lo
o
l
l
lk
l
m
o
lm
n
n
n
k
ln
n
m
m
ll
j
m
n
lm
o
n
m
k
lk
m
p
o
lk
l
m
l
lm
p
n
j
lk
l
n
m
o
lm
m
l
m
lm
M,2200,4.00,1.8,0.548,0.600,13,74,1,0,1,42,50
l
o
m
ll
m
n
o
lo
j
k
n
k
lk
m
m
p
ln
k
l
l
lo
p
j
l
lm
m
n
m
n
lm
k
k
l
ln
o
m
n
ll
k
p
p
j
lk
l
n
n
ll
o
o
l
lm
o
P,2128.37
k
R,6,$GPRMC,084709.000,V,,,,,1.08,295.35,050423,,,N*4E
j
lm
o
n
k
m
lm
n
n
j
ll
m
n
o
ll
j
m
o
lo
k
k
n
n
lm
n
l
l
ln
m
n
m
lk
m
o
m
lm
n
k
o
l
ll
m
m
n
lm
m
n
M,3177,4.00,1.8,0.552,0.603,13,74,1,0,1,42,50
n
ll
m
m
j
o
ln
l
l
n
ll
k
l
o
lp
n
k
k
lm
o
j
o
o
lk
j
n
p
ln
l
l
k
ln
n
m
k
lm
o
m
l
m
lm
k
n
n
ll
l
p
P,3104.94
m
R,6,$GPRMC,084710.000,V,,,,,1.05,290.32,050423,,,N*49
lj
m
n
m
lj
n
p
n
j
lk
n
o
m
ll
l
m
n
lm
n
k
k
n
lo
l
l
n
ln
m
m
k
ln
o
l
m
lk
m
n
m
m
ll
l
n
m
ll
l
k
n
lo
n
l
k
ln
M,4154,4.00,1.8,0.548,0.603,15,74,1,0,1,42,50
n
l
n
n
ln
k
l
n
lm
j
m
o
lo
l
m
o
ll
k
n
o
m
lk
l
p
o
lj
l
o
m
ln
l
l
l
m
lm
o
n
l
ll
n
n
l
lj
m
o
n
lo
P,4081.50
l
E,GPS_startup
R,6,$GPRMC,084711.000,A,4331.4912,N,11603.dä(1{k$PMTK001,10,1*03
l
n
l
ll
o
m
k
ln
n
m
n
ln
m
l
l
ln
p
l
j
n
lq
m
k
l
ln
m
k
n
ln
m
n
l
lj
k
n
p
n
ll
l
m
p
lm
k
k
n
ln
m
m
l
m
ln
l
M,5130,4.00,2.1,0.545,0.603,387,35,40,0,1,42,50
m
p
ln
k
l
l
ln
n
n
l
lj
m
p
o
k
lk
n
n
m
ll
l
l
o
ln
o
l
k
lo
m
j
m
o
ln
l
l
m
ll
n
n
l
lk
n
q
n
k
lk
o
P,5058.03
m
G,5058.03,548.97,2023,4,5,8,47,12.0,43.52486,-116.06450
R,0,$GPRMC,084712.000,A,4331.4918,N,11603.8699,W,0.99,286.57,050423,,,A*70
l
ln
l
m
n
ln
l
p
n
lj
n
m
k
l
lp
o
j
l
lm
n
m
m
lk
o
o
l
ll
m
l
m
m
lm
k
o
o
ll
k
k
o
lm
m
m
l
li
l
o
m
m
ln
o
l
j
M,6107,4.00,2.1,0.548,0.600,14,74,1,0,1,42,50
ll
n
o
m
ln
m
j
o
lm
m
n
k
o
ln
k
l
n
lm
k
l
m
lm
n
l
k
n
lo
n
m
k
lk
n
l
l
lm
m
m
n
lm
m
k
o
n
lj
m
m
P,6034.56
m
lo
G,6034.56,541.44,2023,4,5,8,47,13.0,43.52487,-116.06453
R,0,$GPRMC,084713.000,A,4331.4923,N,11603.8717,W,0.94,289.14,050423,,,A*7B
n
m
n
lj
l
o
n
lk
n
m
l
m
ln
m
m
m
ln
n
l
m
lm
l
m
m
lm
n
p
l
j
ll
o
l
k
ln
o
n
l
ln
m
j
n
o
lm
l
k
n
lm
l
o
l
ll
n
M,7083,4.00,1.8,0.548,0.600,14,73,2,0,1,42,50
n
n
lm
l
n
m
k
lp
n
m
k
ll
p
m
j
lm
o
m
l
lm
l
n
m
n
lo
m
n
l
ll
n
k
l
lp
l
j
o
lo
l
m
m
m
lm
p
l
j
lo
o
m
l
ll
m
P,7011.12
m
G,7011.12,580.88,2023,4,5,8,47,14.0,43.52487,-116.06455
R,0,$GPRMC,084714.000,A,4331.4926,N,11603.8733,W,0.90,290.39,050423,,,A*7C
m
m
lm
n
m
l
ln
n
k
l
lp
o
l
j
ln
n
m
o
o
li
m
o
l
lk
n
l
n
lp
m
j
n
ln
n
m
k
k
lo
p
m
h
lm
p
p
k
li
m
q
p
M,8060,4.00,2.1,0.548,0.612,15,74,1,0,1,42,50
j
ll
n
n
n
lk
m
n
l
ln
l
o
l
ll
m
l
l
n
lo
l
n
m
lj
n
m
o
ln
k
m
m
ll
o
n
m
l
lm
n
m
l
ll
m
m
o
lm
l
k
m
lo
n
j
P,7987.69
m
o
G,7987.69,582.31,2023,4,5,8,47,15.0,43.52488,-116.06459
R,0,$GPRMC,084715.000,A,4331.4930,N,11603.8748,W,0.86,290.23,050423,,,A*7A
lq
l
k
k
lm
o
n
k
lk
o
n
n
ll
l
l
l
p
ln
j
o
m
lk
o
m
l
lo
m
k
m
l
ln
n
l
m
lp
j
j
o
lo
m
k
m
ln
m
l
m
n
lm
M,844,4.00,1.8,0.545,0.600,14,74,1,0,1,42,50
l
m
n
ll
j
n
p
ll
j
m
p
lo
m
j
m
n
lm
m
m
l
ln
n
l
l
lm
m
l
m
ln
m
m
l
n
lm
l
n
n
ln
m
l
h
ln
p
o
l
j
lo
o
m
m
lk
P,772.22
m
G,772.22,581.78,2023,4,5,8,47,16.0,43.52489,-116.06460
R,0,$GPRMC,084716.000,A,4331.4932,N,11603.8761,W,0.84,290.54,050423,,,A*72
n
k
ll
m
n
n
lm
m
l
k
n
ln
l
p
m
lk
n
m
l
lm
n
m
m
lm
l
l
m
o
lo
i
j
o
lo
m
l
m
ll
k
n
o
ln
l
j
n
o
ll
k
m
M,1821,4.00,1.8,0.548,0.600,14,74,1,0,1,42,50
m
lm
n
p
k
lk
o
l
n
n
ll
l
l
n
lk
m
m
n
lo
m
k
m
lm
l
k
o
n
ll
l
l
n
ln
n
n
m
ln
k
m
m
lm
l
m
o
m
lj
m
n
P,1748.75
m
ll
G,1748.75,551.25,2023,4,5,8,47,17.0,43.52489,-116.06462
R,0,$GPRMC,084717.000,A,4331.4934,N,11603.8770,W,0.81,291.42,050423,,,A*76
k
o
l
lm
o
l
m
lm
m
n
j
m
lp
j
k
r
ln
k
l
m
lm
o
p
j
i
ln
p
o
k
lk
m
n
o
ll
i
o
p
ll
m
j
n
m
lm
n
m
l
lo
m
l
m
lm
M,2797,4.00,2.1,0.548,0.600,14,74,1,0,1,42,50
m
m
n
ll
m
m
n
n
lm
l
l
n
ln
m
l
n
lm
m
n
l
lm
l
m
m
o
lm
l
l
m
lo
l
m
n
ln
o
l
j
k
lp
p
k
l
lm
m
o
n
lj
l
n
P,2725.31
m
G,2725.31,567.69,2023,4,5,8,47,18.0,43.52489,-116.06463
R,0,$GPRMC,084718.000,A,4331.4935,N,11603.8775,W,0.76,292.15,050423,,,A*74
ll
n
l
l
n
lo
m
m
l
lm
m
m
n
ll
m
l
l
lo
o
l
l
n
lo
m
m
j
lk
o
o
m
lk
l
n
n
l
lk
l
n
o
ll
l
n
n
lm
l
n
n
ll
l
n
M,3774,4.00,1.8,0.548,0.600,14,72,3,0,1,42,50
l
j
ln
m
l
o
ln
k
m
l
lm
n
l
q
lo
l
k
l
m
lo
m
j
m
ln
o
n
l
ll
m
m
o
ll
l
l
n
n
lm
l
l
n
ln
n
m
l
lm
o
m
k
ln
m
P,3701.87
m
G,3701.87,579.13,2023,4,5,8,47,19.0,43.52489,-116.06464
R,0,$GPRMC,084719.000,A,4331.4935,N,11603.8783,W,0.74,285.07,050423,,,A*7B
m
l
ll
o
m
k
lm
n
n
m
lj
o
n
l
m
lk
n
o
n
ll
l
m
m
lm
l
p
n
ln
j
l
o
n
ll
n
n
l
ll
m
n
o
ln
j
l
o
ln
l
m
l
m
M,4750,4.00,2.1,0.548,0.597,14,74,1,0,1,42,50
ll
l
o
o
ll
l
m
o
ln
k
k
o
lo
m
m
k
m
lm
o
j
m
lo
o
m
l
ln
l
k
n
o
ln
m
l
k
ln
p
m
j
lk
o
n
m
ll
k
m
s
n
li
k
n
o
lj
l
n
P,4678.41
n
G,4678.41,615.59,2023,4,5,8,47,20.0,43.52489,-116.06465
R,0,$GPRMC,084720.000,A,4331.4935,N,11603.8791,W,0.71,278.33,050423,,,A*72
ll
m
n
n
ll
m
m
n
l
lm
l
n
m
ll
m
n
l
ln
m
m
l
lm
n
m
m
l
lo
n
l
l
ln
l
l
o
ll
l
p
l
k
ln
l
m
m
lm
o
M,5727,4.00,2.1,0.552,0.600,22,73,2,0,1,42,50
n
j
ll
n
m
k
ln
n
m
m
m
ln
j
m
p
ln
j
l
m
lo
n
l
m
lm
o
l
l
n
lm
l
l
n
lm
m
l
m
ll
n
n
o
ll
i
m
p
m
lk
P,5654.94
l
G,5654.94,536.06,2023,4,5,8,47,21.0,43.52489,-116.06466
R,0,$GPRMC,084721.000,A,4331.4935,N,11603.8796,W,0.68,276.92,050423,,,A*79
m
n
lo
k
m
m
ll
l
m
m
m
ln
p
m
j
ln
m
l
n
lo
j
k
m
lo
n
l
m
n
ll
m
n
l
lk
l
n
o
ln
k
m
m
lk
n
q
m
h
ll
n
o
l
lk
m
o
m
M,6704,4.00,1.8,0.548,0.600,15,74,1,0,1,42,50
lk
m
n
n
lo
m
j
k
n
lm
n
m
l
ln
l
m
l
ll
m
m
m
n
ln
m
l
l
lm
m
l
l
lo
o
l
l
lk
m
o
o
k
ll
n
l
n
ln
l
l
l
ln
n
m
P,6631.50
l
G,6631.50,576.50,2023,4,5,8,47,22.0,43.52490,-116.06467
R,0,$GPRMC,084722.000,A,4331.4938,N,11603.8800,W,0.68,291.83,050423,,,A*7E
lm
o
l
m
n
lm
n
l
l
lm
n
l
n
lo
m
j
l
n
lo
m
j
n
ln
k
l
p
ll
m
n
m
lm
o
l
l
m
ll
n
m
n
lo
i
i
p
lp
m
l
l
lm
l
M,7680,4.00,1.8,0.548,0.597,14,74,1,0,1,42,50
n
n
l
ll
m
n
m
ln
m
m
m
lm
n
m
k
ln
o
n
l
m
lm
l
m
m
ll
n
n
n
lm
k
n
o
ll
l
n
m
m
ln
l
l
m
lo
o
j
l
lp
P,7608.06
n
j
G,7608.06,541.94,2023,4,5,8,47,23.0,43.52490,-116.06468
R,0,$GPRMC,084723.000,A,4331.4941,N,11603.8807,W,0.86,296.25,050423,,,A*7D
l
p
ln
k
l
l
lo
o
m
k
lm
n
o
l
ll
m
n
m
k
ll
n
n
m
lm
o
m
l
lm
m
m
l
lm
q
m
l
l
lk
o
p
l
ll
m
m
o
lm
j
n
n
ln
m
k
l
M,465,4.00,2.1,0.548,0.600,14,73,2,0,1,42,50
m
ln
o
k
k
lm
n
n
o
ll
k
l
o
p
ll
j
n
m
lm
m
l
n
lo
m
m
m
lj
l
o
o
n
lj
k
o
m
lm
n
l
j
ln
o
m
l
lm
l
m
o
n
ll
P,392.59
l
G,392.59,562.41,2023,4,5,8,47,24.0,43.52490,-116.06468
R,0,$GPRMC,084724.000,A,4331.4941,N,11603.8810,W,0.82,291.89,050423,,,A*79
n
m
ln
m
m
m
lm
l
l
m
ll
m
o
l
k
ln
m
l
n
lm
n
l
l
ll
m
m
o
n
lk
m
l
m
lm
o
l
k
ln
l
m
n
lo
l
l
l
m
lo
k
m
m
lm
M,1441,4.00,2.1,0.548,0.603,15,73,2,0,1,42,50
n
m
m
ln
k
m
o
lm
l
n
l
m
ll
m
o
m
ll
n
n
n
lk
k
o
m
lm
n
m
k
m
lo
m
k
k
lo
q
k
j
ll
n
p
l
i
lm
p
l
P,1369.13
R,6,$GPRMC,084725.000,V,,,,,0.62,284.51,050423,,,N*4F
l
lm
p
l
l
lm
l
m
n
lm
l
l
o
l
lm
m
l
m
ln
m
l
m
lm
n
o
k
lk
p
n
j
m
lo
m
l
l
lm
n
m
m
lm
n
j
m
lo
m
m
l
o
ln
l
m
m
ll
n
n
M,2418,4.00,1.8,0.548,0.603,14,74,1,0,1,42,50
P,2345.69
R,6,$GPRMC,084726.000,V,,,,,0.45,284.51,050423,,,N*49
k
lj
m
p
l
m
ll
o
q
i
lk
o
l
m
lm
o
k
l
lo
m
k
n
p
lm
j
l
m
lm
n
o
k
lk
o
n
m
lm
l
m
n
k
lm
o
n
l
lk
m
m
o
lm
l
o
l
ll
n
n
n
l
ll
l
l
p
lm
k
m
n
ln
m
l
m
n
ll
m
m
m
ln
m
m
l
lm
m
m
j
lk
p
q
j
l
lp
k
l
n
lm
l
m
n
lm
n
l
k
lm
M,3394,4.00,2.1,0.548,0.606,16,73,2,0,1,42,50
P,3322.25
R,6,$GPRMC,084727.000,V,,,,,0.37,284.51,050423,,,N*4D
m
m
m
m
ln
l
l
o
lm
m
m
m
lk
l
r
o
lj
l
n
n
k
ll
m
m
p
lo
l
l
l
lp
o
k
k
m
ln
l
n
n
lk
n
p
m
li
l
p
m
lk
k
n
n
l
lk
m
o
l
ln
m
m
o
ln
k
k
n
ln
n
m
j
o
ln
m
l
l
lm
n
o
m
ll
l
l
o
n
ll
m
m
m
lk
m
n
n
ln
l
l
n
lm
m
m
l
l
ll
n
M,4371,4.00,2.1,0.548,0.600,14,73,2,0,1,42,50
P,4298.78
R,6,$GPRMC,084728.000,V,,,,,0.17,284.51,050423,,,N*40
o
l
ll
o
n
o
ll
k
k
m
lo
n
k
k
o
ln
l
l
m
lk
n
o
l
lj
n
o
m
ll
l
l
n
o
ln
j
k
o
lo
k
j
o
lk
l
r
o
lj
l
k
n
n
lm
m
l
n
ll
l
m
m
lo
n
l
k
m
ln
n
k
m
lm
l
l
k
lm
m
p
m
lk
l
m
k
p
ln
i
l
p
lm
k
m
l
ln
o
k
j
ln
p
m
l
m
lm
k
m
l
M,5348,4.00,2.1,0.548,0.603,15,73,2,0,1,42,50
P,5275.34
R,6,$GPRMC,084729.000,V,,,,,0.19,284.51,050423,,,N*4F
lm
n
m
o
ll
l
l
l
ln
n
m
n
l
lm
m
n
m
lm
n
m
i
ll
m
o
o
j
ll
m
l
n
lo
k
m
m
ln
l
o
m
lm
o
l
k
m
ln
m
k
m
lo
o
m
k
ln
m
m
m
lk
n
q
l
i
ll
q
n
j
lm
n
m
n
ll
l
n
k
ln
o
m
m
n
ln
l
l
n
lp
j
j
o
lo
l
l
k
o
lp
m
k
l
ll
n
o
m
lm
l
M,6324,4.00,1.8,0.555,0.603,13,73,2,0,1,42,50
P,6251.87
R,6,$GPRMC,084730.000,V,,,,,0.24,284.51,050423,,,N*49
m
n
ln
o
n
k
i
lo
r
m
j
lk
m
o
m
ll
l
n
p
lm
j
l
n
o
lm
m
k
n
lo
m
m
l
lm
n
m
k
ll
n
m
m
n
lo
o
l
k
lm
l
n
n
lm
l
n
l
k
ln
n
m
m
ln
k
n
p
lm
l
j
n
lo
m
n
l
k
ln
n
l
m
ln
n
m
l
ll
k
q
o
lm
j
l
n
n
lm
l
l
l
lo
o
n
k
lk
o
n
k
M,7301,4.00,1.8,0.548,0.603,15,73,2,0,1,42,50
P,7228.44
R,6,$GPRMC,084731.000,V,,,,,0.40,284.51,050423,,,N*4A
ln
o
m
k
l
ln
o
l
k
lo
k
m
p
ln
i
k
n
m
ll
m
n
n
ll
n
o
l
lk
o
o
l
lm
l
k
m
o
ll
m
o
m
ll
m
m
o
lm
j
l
n
lm
m
m
n
n
lm
l
k
m
lo
l
k
n
ln
n
m
k
ll
m
o
m
l
ln
m
l
m
lo
k
j
m
lo
o
o
l
k
ln
n
l
l
ll
m
o
n
ll
m
l
l
lm
m
l
m
n
lo
M,85,4.00,1.8,0.548,0.603,14,73,2,0,1,42,50
P,12.97
m
l
k
lm
o
n
k
ll
n
n
k
lj
o
q
m
k
ln
m
l
n
ll
k
o
o
lm
l
j
n
lo
l
k
m
o
ll
m
n
l
lm
m
m
m
ll
m
l
l
p
lo
m
l
k
lm
l
l
n
lo
l
l
o
lm
l
n
m
m
lm
n
o
l
lk
l
m
m
ln
l
l
m
lm
o
m
k
l
ln
o
n
k
lj
m
p
l
lm
o
k
l
lo
m
l
m
m
lo
m
l
M,1062,4.00,2.1,0.555,0.603,15,73,2,0,1,42,50
P,989.53
E,$GPRMC,084732.000,A,4331.4902,N,11603.8820,W,0.43,284.51,050423$GPRMC,084733.00
l
ll
m
o
l
lm
n
l
m
l
ln
m
m
n
ll
l
o
m
lk
o
n
i
ll
o
m
m
l
ll
o
l
k
ll
m
o
p
lm
k
l
m
ln
n
l
m
l
ln
m
l
n
ln
l
l
l
ll
n
n
k
ll
p
n
k
j
lp
n
l
k
ln
n
m
k
ll
n
o
l
l
ln
l
n
o
ll
m
l
n
lm
l
n
m
lm
o
l
k
m
ll
m
o
m
lk
o
o
m
lk
M,2038,4.00,1.8,0.545,0.603,15,73,2,0,1,42,50
m
m
P,1966.06
m
G,1966.06,107.94,2023,4,5,8,47,34.0,43.52484,-116.06472
R,0,$GPRMC,084734.000,A,4331.4905,N,11603.8830,W,0.47,284.51,050423,,,A*72
ll
m
m
m
m
lq
l
j
l
lo
l
l
o
lm
m
n
m
l
ll
o
o
m
lk
n
n
k
lj
o
n
m
ln
k
l
n
n
ln
l
l
o
ln
m
j
k
ln
n
o
m
lm
m
m
k
n
ln
m
m
l
ll
m
m
o
ll
m
m
n
ll
j
o
n
m
ll
m
n
n
lm
k
n
n
lk
m
n
l
ll
n
l
m
n
ln
n
n
l
ll
j
l
n
ln
m
k
M,3015,4.00,2.1,0.548,0.603,14,72,3,0,1,42,50
P,2942.62
k
n
G,2942.62,98.37,2023,4,5,8,47,35.0,43.52484,-116.06472
R,0,$GPRMC,084735.000,A,4331.4906,N,11603.8834,W,0.51,284.51,050423,,,A*73
lo
m
l
l
ll
o
p
l
lj
l
o
n
lk
n
p
n
k
ll
k
m
o
lm
m
m
k
ll
n
p
l
lj
k
n
q
n
li
l
p
k
lk
n
o
m
lk
l
o
n
lm
l
k
n
n
ll
n
l
m
lo
m
l
m
lk
m
o
o
l
lk
l
n
p
ll
k
m
p
ln
l
l
m
ln
n
l
k
n
lm
n
n
m
lm
n
m
n
ll
k
k
l
lp
p
l
k
m
M,3991,4.00,2.1,0.548,0.603,15,73,2,0,1,42,50
lo
P,3919.16
l
G,3919.16,97.84,2023,4,5,8,47,36.0,43.52484,-116.06474
R,0,$GPRMC,084736.000,A,4331.4904,N,11603.8839,W,0.72,246.77,050423,,,A*74
l
l
lm
m
o
m
lm
n
m
l
lm
n
n
l
k
lm
n
m
m
lm
m
n
n
lk
l
l
o
n
ll
n
m
m
lm
m
m
n
lm
m
n
l
lk
n
o
k
m
lo
l
k
n
lm
o
l
l
ll
p
n
k
lk
m
n
n
k
lm
o
o
j
ll
n
o
m
ll
l
n
m
o
lm
k
m
n
ll
l
m
n
ln
o
k
l
ln
m
m
l
o
lp
m
j
m
lo
m
M,4970,4.00,2.1,0.548,0.600,14,74,1,0,1,42,50
n
l
lk
P,4895.69
n
G,4895.69,116.31,2023,4,5,8,47,37.0,43.52484,-116.06475
R,0,$GPRMC,084737.000,A,4331.4906,N,11603.8844,W,0.68,247.00,050423,,,A*77
o
l
ll
m
m
m
n
ll
m
o
l
ll
l
n
o
lm
m
k
m
lm
n
n
l
m
ln
n
m
l
ll
n
q
m
lk
l
n
n
lk
j
m
o
p
lm
i
m
p
lk
m
o
j
lm
o
m
l
l
ln
o
m
k
ll
o
n
m
ll
m
m
p
lo
l
l
l
o
lm
l
n
l
ll
m
o
n
lm
m
l
m
lm
m
k
n
o
lk
p
n
j
ll
n
m
l
M,5945,4.00,1.8,0.548,0.606,16,74,1,0,1,42,50
P,5872.25
lo
m
k
n
m
ll
m
n
l
ln
n
m
l
ll
m
m
m
ln
l
m
l
n
ln
n
l
l
lm
k
p
o
lj
j
n
o
lo
j
k
m
p
ln
j
k
n
lo
m
n
n
ll
i
m
p
ll
j
n
n
n
lm
m
l
l
ln
m
l
l
lo
n
m
l
lm
m
m
m
o
lm
m
n
m
ll
n
m
n
lm
l
j
m
q
lm
l
k
l
lm
o
m
j
ll
o
p
l
ll
m
M,6921,4.00,1.8,0.545,0.606,15,73,2,0,1,42,50
P,6848.81
E,$GPRMC,084738.000,A,4331.4908,N,11603.8848,W,0.65,250.83,050423$GPRMC,084739.00
m
n
m
ln
l
l
o
lm
j
m
p
ll
k
n
k
lm
p
l
m
k
ln
m
k
m
lp
n
l
l
ln
l
k
n
lp
j
j
o
p
lk
k
m
n
ll
m
l
m
ln
n
k
k
m
lo
m
l
m
lk
m
n
p
lm
j
m
o
ll
o
m
l
m
ln
m
m
m
lk
n
n
m
ln
l
l
m
ll
l
m
o
n
lk
i
p
p
lk
k
o
n
ll
n
n
m
ll
m
m
m
M,7898,4.00,2.1,0.548,0.606,14,73,2,0,1,42,50
P,7825.34
n
ll
G,7825.34,95.66,2023,4,5,8,47,40.0,43.52485,-116.06476
R,0,$GPRMC,084740.000,A,4331.4910,N,11603.8854,W,0.55,250.83,050423,,,A*72
l
m
m
lm
n
n
l
lj
m
p
o
k
lk
m
o
l
lm
n
m
m
lm
l
m
n
ll
m
p
k
l
ln
n
m
l
lm
m
l
m
ln
k
l
o
lp
l
j
n
n
lk
n
n
m
ln
m
l
k
ll
n
m
l
ln
n
l
m
o
lo
l
k
m
ln
n
k
k
lm
o
o
k
l
ln
n
n
l
ll
m
m
l
ln
n
n
n
lj
k
p
r
k
li
k
n
p
ln
M,682,4.00,2.1,0.542,0.603,15,73,2,0,1,42,50
P,609.88
k
l
G,609.88,97.12,2023,4,5,8,47,41.0,43.52485,-116.06476
R,0,$GPRMC,084741.000,A,4331.4911,N,11603.8854,W,0.53,250.83,050423,,,A*74
m
lm
m
m
m
lm
m
l
l
o
lm
k
m
n
ln
l
j
l
lo
n
l
l
lk
n
o
k
l
ln
n
n
m
lm
o
o
j
lk
p
n
n
l
li
o
o
n
lk
l
m
o
ll
k
l
n
ln
n
l
l
n
lm
m
m
n
ln
m
m
l
ll
n
o
n
lm
k
l
l
m
lm
n
l
l
lp
m
k
l
ln
n
m
n
lm
k
l
o
l
lk
n
p
m
lm
j
l
M,1659,4.00,2.1,0.545,0.600,14,73,2,0,1,42,50
o
ln
k
P,1586.44
k
G,1586.44,118.56,2023,4,5,8,47,42.0,43.52485,-116.06476
R,0,$GPRMC,084742.000,A,4331.4911,N,11603.8856,W,0.51,250.83,050423,,,A*77
n
n
lm
m
n
k
lk
p
m
l
ln
n
l
l
lm
m
n
m
n
lo
m
l
m
lm
m
m
n
ln
j
n
o
ln
k
k
o
q
ln
l
k
l
ln
n
l
k
lm
o
n
l
lm
k
n
o
m
ll
m
m
m
ln
m
m
m
ll
n
n
l
j
lm
p
m
k
ll
o
o
j
lk
p
n
l
lm
n
l
m
m
ln
o
l
k
ll
n
m
n
lm
l
l
m
lp
M,2635,4.00,2.1,0.545,0.597,51,69,6,0,0,42,50
n
l
l
l
lq
n
i
l
lo
m
m
m
ll
k
n
o
lm
l
l
p
o
lk
l
o
n
ll
l
m
n
ln
l
k
n
l
ln
o
i
l
ll
o
n
l
ll
n
o
m
lj
l
p
m
k
lk
o
m
l
ln
m
k
k
lo
p
m
l
lm
m
j
k
p
lq
l
j
m
ln
n
l
l
ln
n
k
l
lp
n
l
l
m
lm
k
m
o
lo
k
l
n
lm
k
l
p
n
lk
k
M,3612,4.00,1.8,0.545,0.594,15,74,1,0,0,42,50
m
m
lm
m
m
l
lm
o
m
l
lm
m
n
m
p
lk
k
l
o
ln
k
k
n
lo
m
l
l
lo
p
k
k
m
ln
m
o
m
ll
m
l
o
lm
l
n
m
ll
m
n
l
l
lo
j
l
p
ln
k
m
m
ln
n
l
m
l
lo
m
l
k
ln
n
l
l
ln
m
l
m
ll
n
l
m
o
lm
k
m
o
ln
l
m
m
ll
m
n
n
lm
k
l
o
m
lk
m
l
n
M,4589,4.00,2.1,0.548,0.594,14,74,1,0,0,42,50
ln
m
m
m
lm
l
n
l
ln
o
m
k
l
ln
n
l
n
ln
k
j
n
lq
m
j
m
n
lm
l
m
l
ln
o
n
k
ln
m
m
l
ln
n
m
l
j
lm
o
k
n
lo
l
m
n
lk
m
q
m
ll
k
l
n
m
lm
l
n
n
lm
m
k
l
lp
n
k
l
n
lo
l
l
o
lk
j
n
o
lm
m
n
o
lm
k
j
l
m
ln
n
n
k
ll
o
n
l
ln
m
M,5565,4.00,2.1,0.552,0.606,15,74,1,0,0,42,50
l
l
lm
m
n
m
m
ln
l
n
m
lj
j
p
o
ln
l
i
k
lp
o
l
m
l
lo
l
k
l
ln
m
m
m
lm
k
o
q
lm
j
l
m
n
lk
l
o
n
lm
m
l
l
lm
m
m
l
l
lm
l
n
m
lm
o
n
m
ll
m
n
n
lk
m
l
n
o
lj
k
m
p
ll
n
n
m
lm
m
l
j
ll
o
o
n
k
ln
n
n
n
lm
j
m
n
ll
l
o
l
M,6542,4.00,2.1,0.545,0.591,15,74,1,0,0,42,50
k
ll
o
p
m
lj
m
n
o
ln
k
k
m
lo
n
l
l
n
lo
n
k
k
lo
n
l
l
lm
k
n
n
ll
m
m
n
m
ln
k
n
o
ll
l
l
n
lo
l
l
m
ln
n
m
n
k
lk
o
n
n
lm
l
m
n
ln
l
k
m
lm
l
l
p
n
lk
l
m
o
lo
l
j
k
lo
n
m
n
j
ll
p
o
l
lp
o
l
l
ll
l
l
l
lp
m
j
m
m
lm
M,7518,4.00,2.1,0.548,0.597,13,74,1,0,0,42,50
p
m
m
ll
m
n
n
ll
k
o
n
ll
n
m
l
l
lm
l
l
n
lo
n
l
l
ll
l
n
n
ln
l
m
n
p
ll
k
m
n
lm
l
n
n
lo
k
l
o
m
ll
n
n
l
ll
o
m
j
ll
n
o
p
lm
k
k
o
n
lk
k
l
m
lq
n
i
m
lm
l
p
p
lj
l
o
l
l
ll
l
o
o
lm
l
o
o
lk
l
o
n
lj
m
m
n
m
lm
m
n
M,303,4.00,2.1,0.548,0.594,14,74,1,0,0,42,50
k
ln
m
l
j
ln
r
o
k
j
lk
p
m
k
lm
n
n
k
lm
n
l
l
ll
o
o
j
k
ln
o
n
n
ll
k
k
o
lo
m
j
k
ln
o
n
m
n
lk
k
p
m
lk
m
m
l
lk
o
o
l
k
lo
l
k
n
lm
m
l
p
ll
l
k
m
lp
n
k
k
l
lo
n
l
m
ln
k
l
m
ll
n
o
j
ll
o
l
n
m
lj
n
n
n
ll
j
l
q
lo
M,1279,4.00,2.1,0.552,0.603,14,74,1,0,0,42,50
k
m
m
lm
o
l
m
m
lm
l
n
k
lm
o
m
l
ll
n
o
l
ll
l
l
m
o
lm
k
l
m
ln
n
m
l
lm
n
l
m
n
ll
k
n
p
ll
k
n
n
ll
l
m
m
ll
m
o
m
l
lm
m
k
n
lo
m
m
k
lm
p
n
k
lm
n
m
k
m
lm
m
o
m
lm
m
k
n
lo
n
k
m
ln
m
k
l
o
lm
m
o
n
lk
k
o
n
lm
l
l
M,2256,4.00,2.1,0.545,0.594,14,74,1,0,0,42,50
m
k
lp
p
l
l
ll
l
p
m
lj
l
o
n
ll
n
m
m
o
lm
k
o
p
lk
l
n
n
lj
m
p
l
lk
m
o
n
j
lm
n
n
m
ll
l
n
l
lm
o
n
m
ll
m
m
l
n
lm
l
n
o
ll
k
m
o
ll
k
m
n
n
lm
l
m
p
ln
j
k
m
ln
n
l
m
lm
k
n
o
l
ll
n
l
n
lm
k
m
n
ln
o
m
k
ll
l
o
n
m
M,3232,4.00,2.1,0.552,0.597,14,74,1,0,0,42,50
lk
n
o
n
lk
l
n
m
ll
n
p
m
lk
k
n
n
n
ln
m
k
m
ln
m
k
m
ln
n
l
m
m
ll
n
o
l
lj
n
n
m
ln
l
m
m
lo
l
l
n
n
lk
l
o
n
lk
m
n
n
lj
k
q
n
ll
m
k
m
o
lo
k
k
o
ln
n
k
l
lo
l
m
n
lm
l
k
o
m
lm
m
k
l
ln
l
n
p
ll
j
o
p
l
lj
m
p
m
ll
l
M,4209,4.00,2.1,0.552,0.603,14,74,1,0,0,42,50
m
m
lm
o
l
l
lm
m
m
m
o
ln
k
j
m
lq
m
k
o
ll
l
o
k
lm
o
n
n
m
ll
j
l
n
ln
m
l
l
lo
n
k
k
o
lo
m
l
m
lk
m
n
n
lm
k
m
p
lm
j
j
n
q
lo
k
j
l
lp
o
l
l
ll
n
n
j
ln
o
k
l
p
ln
k
m
n
lm
n
l
j
ln
o
l
k
lo
o
j
k
m
lm
o
l
m
ll
m
l
m
M,5186,4.00,2.1,0.545,0.594,15,74,1,0,0,42,50
ln
n
o
k
ll
m
o
l
j
lp
o
m
k
lj
o
m
n
ll
m
m
n
o
ll
k
m
m
lm
n
m
j
lm
n
o
l
lj
o
q
j
j
lm
n
o
n
lm
m
m
n
lo
k
j
n
lo
o
m
j
m
ln
m
m
n
lj
l
p
n
lk
l
o
o
ll
m
l
l
n
ln
o
j
m
lo
n
l
k
lm
q
m
i
m
lo
l
n
m
ll
l
o
n
lm
l
m
m
ln
m
M,6162,4.00,2.1,0.548,0.606,14,74,1,0,0,42,50
k
m
p
ln
j
l
q
ln
l
n
m
lm
m
k
k
lm
m
o
n
l
lk
m
n
m
ln
j
l
o
lo
l
j
m
lp
m
m
p
k
lj
n
o
l
ln
p
j
j
lo
n
n
m
m
ll
l
n
p
lm
g
l
o
lm
o
o
m
lm
l
m
n
k
ln
n
l
l
ll
m
n
n
ln
k
k
n
lo
m
m
m
o
lm
l
l
k
ln
o
n
k
lm
o
n
m
lk
k
p
n
M,7139,4.00,2.1,0.548,0.600,15,74,1,0,0,42,50
k
lk
m
l
n
ll
m
n
o
ln
k
l
m
n
ln
n
l
k
ln
l
k
n
lo
n
m
m
lm
k
m
o
n
lk
i
m
o
lp
k
k
o
ln
n
k
l
ln
m
l
l
l
lo
p
k
j
lm
n
o
n
ll
k
l
m
lo
m
k
o
n
ll
l
j
m
lp
n
j
l
lm
o
o
l
k
ln
n
l
l
ln
m
l
n
lm
l
m
l
lo
p
l
k
l
lo
m
k
m
ln
M,8115,4.00,2.1,0.548,0.600,14,74,1,0,0,42,50
j
m
n
lo
m
k
k
lo
n
l
m
m
lm
o
l
j
ln
o
m
l
lm
m
l
m
ln
n
l
m
n
ln
l
n
l
lk
p
o
j
lj
n
p
n
m
lk
m
n
m
ll
o
m
l
ll
m
n
n
ll
m
m
l
n
lm
l
n
m
lk
o
n
n
ll
l
m
m
ln
n
l
m
l
lm
m
o
k
lm
n
l
l
lo
l
j
p
lo
k
m
m
m
ln
k
k
n
lm
n
n
M,900,4.00,2.1,0.545,0.594,13,74,1,0,0,42,50
m
ll
o
n
l
k
ll
n
q
l
lj
m
n
n
ll
l
l
m
ln
m
p
k
k
ln
o
n
l
lm
m
m
j
lo
n
l
n
lm
l
l
p
o
lk
j
l
o
ln
o
m
i
ln
o
m
l
ll
n
n
m
m
ln
m
l
l
lo
o
l
m
lj
l
n
o
m
lj
o
o
l
lp
m
j
n
ln
k
k
m
lo
o
l
k
n
lp
n
k
l
ln
o
l
k
ll
l
n
o
lm
M,1876,4.00,2.1,0.545,0.594,15,74,1,0,0,42,50
k
l
n
m
lm
m
o
n
lj
m
n
n
lm
l
o
m
ll
j
l
p
n
lk
n
o
l
ll
m
m
l
lm
n
o
n
k
lk
k
m
o
lo
l
k
n
lm
m
l
k
ln
l
o
p
m
lj
l
l
o
lo
j
k
n
lp
n
k
m
lk
n
n
m
l
lm
m
l
o
ln
k
n
n
lm
l
n
m
ll
m
n
m
m
ll
m
l
n
lo
l
k
l
ln
q
l
l
k
lm
n
M,2853,4.00,2.1,0.545,0.591,18,73,2,0,0,42,50
n
m
lm
l
l
n
ln
m
k
o
lo
k
l
m
l
lo
m
l
m
lm
m
l
m
ln
l
j
k
lr
o
k
l
m
ll
n
n
l
lk
l
n
o
ln
k
j
p
lo
k
l
p
m
lk
k
o
n
ll
n
n
k
ll
n
o
l
k
ll
n
n
m
lm
m
n
m
ll
m
l
m
ln
l
l
o
m
lk
n
n
l
lm
m
k
o
lo
l
l
m
lm
m
m
m
m
lo
n
m
l
M,3830,4.00,2.1,0.548,0.597,14,74,1,0,0,42,50
lj
l
o
n
ll
l
n
m
lm
n
l
o
l
lk
p
n
j
ln
m
l
o
ln
l
l
l
p
lp
i
k
p
lo
k
k
m
lo
m
l
m
lo
l
o
o
k
li
n
q
o
lk
i
n
r
lm
i
n
m
ln
m
l
p
l
li
l
p
o
ll
l
m
l
lo
p
l
k
lm
l
n
m
m
lm
m
o
n
ll
j
n
o
lm
m
m
m
n
ln
l
l
k
lm
p
m
i
lm
q
M,4806,4.00,2.1,0.548,0.600,21,73,2,0,0,42,50
m
j
ll
m
o
n
m
lm
n
l
m
ln
j
n
p
ln
k
k
m
lm
k
n
o
l
ll
m
n
n
li
m
n
o
lo
k
i
n
lq
n
l
l
l
lm
n
m
m
ll
n
n
l
ll
n
o
l
j
lm
p
m
k
ll
l
o
o
ln
n
l
j
lm
o
l
k
n
lm
m
m
m
ln
k
k
n
lm
n
n
l
ll
o
k
l
n
lo
m
k
m
ln
n
m
o
lj
j
o
n
M,5783,4.00,2.1,0.545,0.594,14,74,1,0,0,42,50
lk
m
o
l
k
lm
k
k
p
lp
k
i
n
lq
n
j
k
n
lp
o
j
l
lo
n
l
j
lk
q
n
l
ln
l
l
n
l
lm
m
o
m
lm
m
n
l
lj
n
o
n
ll
k
m
p
k
lm
m
m
m
lm
n
n
k
lk
o
p
n
l
lm
k
o
o
lm
k
n
m
ln
l
l
l
lm
n
m
m
o
lm
k
m
p
ln
j
l
p
lm
j
l
n
lp
l
l
m
o
ll
M,6759,4.00,2.1,0.548,0.597,13,74,1,0,0,42,50
m
m
m
lm
l
o
o
ll
k
m
m
lm
n
o
k
l
lo
l
m
n
ll
k
n
n
ll
k
l
o
ln
m
l
m
m
ln
m
k
m
ln
m
n
m
lk
n
q
l
j
ll
n
n
l
ln
o
m
l
ln
l
j
o
ln
l
l
l
n
ln
o
k
j
lm
o
n
m
lk
m
p
k
lj
n
n
m
k
ln
p
l
i
lo
q
l
m
ll
n
m
k
l
lo
n
m
j
lm
p
m
M,7736,4.00,2.1,0.552,0.603,14,74,1,0,0,42,50
m
lm
l
l
l
ln
o
l
l
l
lk
n
q
o
lj
g
n
q
lo
j
j
p
lo
l
j
n
o
lo
n
k
k
ll
n
o
l
ll
m
n
n
li
k
p
p
m
lj
m
p
n
lj
m
l
n
ln
l
n
p
lk
l
n
m
k
lk
o
q
j
lk
o
o
k
ll
l
o
o
l
lk
l
q
m
lk
l
m
n
lm
k
n
o
ln
m
l
m
l
lo
l
j
o
lm
j
m
o
lo
M,520,4.00,2.1,0.545,0.600,13,74,1,0,0,42,50
n
l
l
ll
n
n
m
m
ll
l
n
n
lm
l
m
p
ll
j
n
p
ll
l
m
k
m
lo
l
m
m
lm
m
l
n
lo
m
k
k
o
lo
l
k
n
lm
m
o
l
lj
l
o
p
lm
j
m
p
l
lm
m
n
l
lm
n
n
m
lk
n
l
k
lo
l
l
m
n
lm
n
n
j
lm
m
l
n
ln
m
m
n
lm
j
m
o
m
ln
o
l
k
lq
n
i
k
lo
q
i
M,1497,4.00,2.1,0.548,0.603,14,74,1,0,0,42,50
l
m
lm
q
n
j
ln
n
k
l
ll
n
n
o
ll
k
l
o
q
lk
l
l
m
lp
l
l
m
lo
n
k
k
ll
o
n
m
m
ln
m
l
j
lm
o
p
l
li
m
p
n
lm
m
o
k
j
lo
n
m
m
ll
n
o
m
lk
n
m
m
l
ln
o
n
m
lj
k
n
n
lk
m
n
o
lm
l
k
n
n
ll
l
m
n
lq
m
i
k
lo
o
m
k
lm
n
n
k
l
M,2473,4.00,2.1,0.548,0.603,14,74,1,0,0,42,50
lm
o
l
j
lm
q
l
k
ll
m
o
m
lk
n
o
j
k
lq
o
k
m
lm
m
m
m
ln
k
k
m
o
ln
n
m
m
ll
o
l
k
lk
n
o
m
lk
l
m
o
k
ln
n
k
l
lo
o
k
m
lo
n
k
l
ln
n
l
k
n
ln
l
l
m
ln
p
k
l
lm
m
m
o
lk
l
o
m
l
ln
n
l
j
lm
n
m
n
ln
k
k
o
m
lm
m
k
n
lq
k
M,3450,4.00,2.1,0.548,0.600,15,74,1,0,0,42,50
h
o
lp
l
m
n
lm
k
m
p
l
lj
m
o
l
lj
p
o
n
lk
l
n
o
lo
l
k
n
l
ll
o
n
i
ll
n
m
n
lm
k
l
m
ln
n
k
m
n
lm
l
m
n
ll
j
n
m
ln
n
m
m
l
lk
m
l
o
lo
m
k
l
ln
m
n
l
lm
m
l
o
l
li
o
p
n
lk
j
m
p
ln
j
j
o
lq
m
i
n
r
lm
k
k
n
ln
k
l
n
M,4427,4.00,2.1,0.552,0.603,15,74,1,0,0,42,50
lo
j
l
l
lm
o
m
l
o
ln
k
m
p
ll
k
o
l
ll
l
n
o
l
ll
l
l
n
lm
m
o
m
lj
n
p
l
ll
m
l
m
o
ll
j
l
p
lo
m
k
j
ln
p
m
m
lm
m
l
k
n
ln
m
m
k
lo
p
k
j
lp
o
m
l
ll
m
n
n
l
ll
o
o
k
lj
l
o
q
lo
i
k
o
n
ll
m
l
l
lo
n
m
j
lo
n
m
o
ln
i
M,5403,4.00,2.1,0.542,0.597,15,74,1,0,0,42,50
n
o
l
ln
n
j
n
lo
l
k
n
lo
k
m
m
ll
n
n
n
o
lm
k
l
p
lo
m
l
j
lm
o
n
n
lm
i
m
q
m
lm
n
n
l
ll
m
m
m
lm
m
n
n
l
ln
k
n
n
lm
n
l
m
lm
o
n
k
ll
o
n
m
k
ll
n
l
n
lp
l
i
k
lq
n
j
l
lo
o
m
n
m
lm
m
l
n
ln
m
l
l
lo
m
l
l
ln
n
m
n
M,6380,4.00,2.1,0.545,0.597,14,74,1,0,0,42,50
m
lm
m
l
k
lm
m
l
n
lp
l
m
n
m
ll
l
o
l
ll
m
m
n
ll
m
m
l
ln
l
n
n
l
ll
m
l
o
lm
m
m
m
lo
n
j
j
ll
q
p
k
k
ln
p
m
j
lo
n
k
l
lm
m
m
l
ll
n
n
n
j
lm
o
l
l
lm
n
m
k
ll
m
n
p
n
lj
l
o
m
ll
k
l
o
lm
m
k
l
ln
p
j
j
m
lp
n
k
m
lm
M,7356,4.00,2.1,0.552,0.600,14,74,1,0,0,42,50
o
l
k
lm
n
n
m
lm
n
k
l
m
ln
p
k
i
lm
o
m
l
ln
m
m
o
lj
m
o
m
k
ll
n
o
m
lk
j
m
p
ln
j
l
o
o
ll
j
k
p
lo
l
l
m
ln
n
l
l
ln
o
o
j
k
lo
n
k
m
lo
o
k
j
ln
n
k
n
lp
m
i
k
p
lm
m
m
l
lo
p
m
i
lk
q
n
j
k
lo
p
o
l
ll
l
k
o
lo
m
k
M,141,4.00,2.1,0.545,0.594,13,74,1,0,0,42,50
n
ln
m
m
m
k
lp
p
l
j
ll
o
n
k
lk
m
p
n
lk
k
n
o
n
ll
l
l
l
ln
n
n
l
ll
n
l
l
ln
m
p
m
m
ll
k
n
m
lk
o
n
k
lm
p
n
k
lk
n
o
l
k
ln
n
p
n
lm
j
m
o
ll
k
n
q
l
lk
l
m
n
lo
n
i
k
ln
o
l
m
lm
l
n
m
m
lm
m
o
n
ll
l
n
l
ll
n
m
l
ll
M,1118,4.00,2.1,0.552,0.600,14,74,1,0,0,42,50
n
o
k
l
lm
o
p
l
lk
k
l
n
lm
n
m
m
ln
l
n
n
o
ll
j
k
n
lo
l
n
o
lm
j
k
o
p
ln
j
m
m
lk
n
n
l
ll
m
o
j
lj
p
q
k
k
lm
n
o
l
lm
n
l
m
ln
k
m
o
lm
m
m
l
m
ln
l
l
l
lo
n
l
m
ln
l
n
n
ll
l
m
m
o
lm
j
l
o
ln
l
l
n
lo
j
k
o
n
ll
n
M,2094,4.00,2.1,0.552,0.603,14,74,1,0,0,42,50
m
l
ll
l
o
m
ln
j
j
q
ln
k
l
p
m
lk
l
n
m
lp
m
j
j
lm
q
n
l
ll
n
o
m
i
lj
p
o
k
lm
o
k
k
lp
q
k
h
lm
o
o
m
l
lj
o
n
m
ln
m
k
o
ln
m
l
l
n
lm
l
k
n
lo
m
m
n
lj
k
m
o
lo
l
l
n
o
ln
k
j
n
lr
m
h
l
lo
o
m
m
ll
n
m
m
l
ln
n
l
m
M,3071,4.00,2.1,0.548,0.597,15,74,1,0,0,42,50
lm
m
m
m
ln
m
m
m
lk
l
n
o
l
lm
n
m
j
ln
n
m
o
ll
k
l
n
p
lm
l
k
l
ln
o
m
m
ln
m
l
o
lm
l
m
m
m
lm
l
n
m
lm
n
n
m
ll
n
o
k
ll
m
j
o
p
lk
l
o
l
ln
n
m
l
ln
m
m
j
m
lo
p
j
j
lm
n
o
m
lk
n
o
k
lk
n
o
l
k
ln
m
m
m
lm
k
l
m
lp
m
M,4047,4.00,2.1,0.552,0.600,13,74,1,0,0,42,50
m
m
lk
n
n
m
m
ln
n
l
k
lp
n
j
m
lo
m
l
l
lm
m
m
n
m
lm
k
o
o
lk
l
n
m
ll
l
m
o
lm
k
l
o
n
ll
l
l
n
lo
o
l
k
ll
n
m
m
l
lm
n
n
j
lm
n
m
m
ln
l
m
m
ll
n
n
m
l
ll
n
n
o
ln
l
l
k
ll
o
m
k
lm
o
k
k
l
lo
o
n
l
ln
k
n
m
ln
o
k
l
M,5024,4.00,2.1,0.542,0.597,17,73,2,0,0,42,50
l
ln
n
m
k
lm
p
m
l
lm
n
m
l
ll
m
l
l
o
ln
l
m
k
lm
p
l
l
ls
n
i
k
ln
o
o
m
k
ll
o
m
j
lo
o
m
l
ll
n
m
m
lm
l
m
m
n
ll
m
l
n
ln
n
o
j
lj
n
o
l
lk
o
o
l
n
lm
j
m
n
ln
m
m
m
ln
n
m
k
n
lm
l
n
m
ln
n
k
l
lo
m
l
n
lm
k
n
p
k
lj
M,6000,4.00,2.1,0.542,0.594,14,74,1,0,0,42,50
l
p
n
ll
l
o
n
lk
k
n
m
ln
m
k
m
n
lm
n
p
k
lj
n
m
l
ll
n
m
l
ln
n
m
m
l
ll
l
n
m
lm
n
n
l
ll
l
n
l
m
ln
m
l
l
lk
n
n
m
lm
m
l
m
ln
m
l
l
m
ll
k
n
p
ll
l
m
p
ln
m
k
l
lo
n
j
o
p
ll
l
n
m
lk
l
o
m
ll
m
o
m
lk
k
o
q
n
lj
j
o
M,6977,4.00,2.1,0.548,0.603,15,74,1,0,0,42,50
m
lk
l
p
n
lk
l
j
o
q
lj
k
n
o
lm
l
m
n
lm
l
m
m
ln
n
k
m
q
lm
k
l
m
ln
n
n
m
lk
l
p
m
lj
k
n
r
l
lj
k
o
r
li
h
o
o
ll
m
l
m
lp
n
k
k
n
ll
n
p
m
lk
l
m
m
ln
m
k
o
o
ll
i
o
p
lk
j
k
n
lo
o
m
l
ll
m
m
m
m
ll
m
m
k
ln
m
n
l
ln
M,7953,4.00,2.1,0.552,0.600,13,74,1,0,0,42,50
m
l
l
lp
n
k
n
l
ll
m
o
n
ll
m
l
l
lo
o
j
k
lm
o
l
l
p
lm
k
k
m
lo
n
l
m
ll
l
o
o
k
lk
o
o
m
lm
l
l
n
lm
m
l
k
ln
n
l
k
o
ln
l
m
l
ln
o
l
l
lm
m
l
m
ln
m
l
n
m
ll
l
k
l
ln
p
n
i
lm
n
n
n
ln
l
l
n
m
lo
l
k
m
ln
n
m
n
lm
k
m
M,738,4.00,2.1,0.548,0.597,14,74,1,0,0,42,50
o
m
lj
m
o
o
lm
k
l
n
ln
m
l
m
lm
o
o
j
k
lq
o
k
k
ll
m
o
l
ln
o
k
m
ln
o
l
l
m
ll
n
n
l
lo
n
l
m
lk
n
o
l
lm
l
l
n
o
ln
l
m
l
ln
m
m
n
lm
n
m
j
m
ln
n
n
m
lm
l
k
l
lp
n
m
m
ll
m
n
m
m
lo
m
k
n
lo
l
l
n
ll
m
o
k
lk
o
o
m
l
M,1714,4.00,2.1,0.548,0.594,21,73,2,0,0,42,50
lm
m
l
k
lm
o
l
m
lm
n
n
m
m
lm
m
n
n
lk
k
n
o
ll
m
l
m
lo
m
m
l
n
ll
n
m
m
lm
n
k
l
lm
p
n
l
lm
l
m
m
k
ln
o
o
m
lk
n
o
l
lm
m
m
k
lm
m
m
n
n
lk
k
n
o
ln
l
l
l
ln
o
n
h
lk
q
o
k
l
lk
m
q
o
lj
l
m
n
lm
n
m
k
l
lo
n
l
m
lo
l
M,2691,4.00,2.1,0.548,0.594,14,74,1,0,0,42,50
l
n
lm
l
o
o
lj
l
o
o
k
lk
o
m
m
lm
i
k
p
lo
m
k
n
ln
m
l
l
m
lo
m
m
m
lp
n
k
l
lm
l
n
o
l
lj
m
o
p
ln
j
n
n
lj
k
m
n
lk
n
o
l
m
ln
l
l
o
ln
l
n
m
lk
l
p
m
ll
l
l
m
p
ln
k
m
m
lo
m
k
n
lk
n
n
k
lm
m
m
n
l
lk
m
n
n
ln
l
k
n
M,3668,4.00,2.1,0.555,0.600,15,74,1,0,0,42,50
lm
m
n
l
ll
m
m
m
o
ln
i
n
o
lm
l
m
o
lm
m
l
m
l
ln
m
l
l
lm
n
n
k
lk
o
n
l
lm
l
n
n
k
lk
q
m
l
lm
m
n
n
ll
j
o
p
lk
h
m
s
o
lj
j
n
o
lo
j
j
n
ln
m
m
k
l
ln
n
l
m
lm
l
o
p
lj
l
n
l
lm
m
n
l
m
ln
l
k
l
lm
n
m
n
ln
m
n
n
lk
k
M,4644,4.00,2.1,0.552,0.603,13,74,1,0,0,42,50
l
n
n
ll
m
m
m
ln
m
l
p
lm
j
n
o
lk
l
l
o
n
lj
l
o
n
lm
l
l
l
lo
p
m
k
lm
l
m
n
m
ln
m
k
l
ln
o
l
l
ll
l
n
p
m
lj
m
o
m
lk
o
o
m
ll
l
n
n
lk
n
o
m
k
ll
l
o
p
ll
j
l
p
lp
k
i
l
lp
o
n
i
m
lo
o
m
l
lm
l
n
o
lk
l
n
l
m
lm
m
n
M,5621,4.00,2.1,0.548,0.603,14,74,1,0,0,42,50
m
lk
m
n
n
ln
k
m
p
lm
m
k
m
m
ln
m
k
l
lo
p
i
n
lo
n
k
k
lm
n
o
n
n
ll
m
m
n
ln
l
j
l
lq
n
m
i
ll
p
n
k
n
lq
n
i
k
lo
n
n
m
lj
l
p
o
ll
m
l
l
n
lm
m
n
m
ln
m
l
l
ln
m
l
n
m
ll
n
l
n
lm
k
o
o
lm
l
k
o
ln
l
l
l
l
lp
o
m
l
lk
M,6597,4.00,2.1,0.545,0.597,13,74,1,0,0,42,50
l
n
o
ln
j
l
o
lm
j
l
o
p
lm
j
m
n
lm
m
m
l
lm
m
m
n
lk
m
n
m
l
lm
m
l
n
lm
m
o
n
lm
k
n
n
l
ll
n
m
l
ll
n
o
n
ll
k
n
m
ll
n
o
j
l
lm
m
m
o
lm
j
l
o
lm
m
l
n
ln
k
k
n
p
lo
j
j
n
lq
n
i
l
lo
m
n
l
lj
l
l
o
r
ln
j
k
m
lk
n
n
M,7574,4.00,2.1,0.548,0.600,14,74,1,0,0,42,50
l
ln
m
m
n
m
ll
m
n
l
lk
n
m
m
lm
l
m
o
ln
m
k
n
k
lm
o
j
m
lm
m
m
m
ln
m
m
m
lm
l
k
m
o
lm
l
m
o
lk
l
m
n
ln
k
l
n
lp
l
l
m
k
lp
n
k
k
ll
m
n
n
ln
l
k
n
p
lo
k
k
n
ln
n
j
m
ln
n
n
l
lm
n
l
l
k
ll
n
n
m
ll
o
p
k
ll
l
n
m
lj
M,358,4.00,2.1,0.548,0.600,15,74,1,0,0,42,50
n
o
o
l
lm
l
m
n
lm
m
m
l
lm
n
n
l
ll
q
l
k
o
lk
l
o
l
lk
n
n
l
lm
k
m
o
n
ll
m
n
m
lm
m
k
n
lo
n
l
l
lm
n
l
n
o
lo
l
l
k
ln
n
l
l
lm
l
n
p
lm
k
n
n
j
ll
o
m
l
lm
m
m
m
lm
l
l
m
o
ln
n
i
l
lp
l
m
q
ll
k
l
o
ln
n
m
m
k
ln
m
M,1335,4.00,2.1,0.545,0.588,15,74,1,0,0,42,50
k
m
ln
m
p
m
ll
l
m
m
lk
k
o
n
m
lk
k
o
o
lm
l
k
m
lm
m
n
n
ln
m
m
o
m
lj
n
n
l
ln
m
l
n
lp
o
i
j
lm
p
n
l
l
ll
n
p
k
ll
o
o
l
lj
n
n
m
l
lk
o
o
m
lm
l
n
n
ll
l
l
l
lo
l
m
n
n
lo
m
j
l
ln
o
l
m
lo
k
l
o
ll
l
m
n
p
lm
k
m
o
M,2312,4.00,2.1,0.545,0.591,14,74,1,0,0,42,50
ll
j
n
n
lm
m
k
m
lo
m
n
m
l
ll
o
n
k
ll
o
n
m
lk
l
o
n
l
ll
m
o
l
lj
l
p
o
ll
l
o
n
lk
m
k
k
n
lo
n
m
m
lm
m
n
m
lj
l
o
o
ll
l
k
l
m
lm
n
o
l
ll
m
m
m
ll
n
m
l
ln
l
n
n
m
ll
l
m
n
lm
m
m
m
ll
n
n
j
m
ln
n
n
n
ll
j
o
m
lk
m
M,3288,4.00,2.1,0.545,0.603,14,74,1,0,0,42,50
m
m
lm
o
m
k
l
lm
n
l
l
ll
o
l
m
lm
l
n
n
ln
l
k
m
p
ln
k
j
n
ll
l
m
m
ln
n
m
n
ll
n
k
l
o
ll
l
p
o
lj
j
o
n
ll
l
o
n
k
ll
n
m
l
lm
m
k
o
ll
n
n
l
ll
l
o
m
n
ll
j
o
p
lk
m
m
k
ln
o
o
j
lk
p
n
l
l
lo
m
m
l
ll
n
n
l
ll
l
m
p
M,4265,4.00,2.1,0.552,0.603,15,74,1,0,0,42,50
ln
l
j
j
p
lq
j
j
o
lq
n
l
j
lk
o
p
l
l
ll
n
p
m
lj
i
n
o
ll
m
o
m
ll
m
n
n
n
lk
j
n
p
lo
j
l
o
lo
n
k
k
ln
q
l
k
l
lm
m
n
n
ll
k
l
n
lo
n
m
k
m
lm
n
l
m
lo
m
l
l
lo
m
l
n
lo
m
k
m
o
lm
k
m
m
ln
m
m
m
ln
o
m
l
ln
n
m
k
l
lm
M,5241,4.00,2.1,0.545,0.591,16,74,1,0,0,42,50
p
m
l
lk
k
p
p
ll
l
n
o
ln
j
l
n
n
lo
k
j
n
lm
n
n
l
ll
o
p
l
li
n
p
l
m
lm
n
o
l
ll
l
l
n
ln
l
m
o
m
lj
n
q
l
ll
m
l
o
lq
k
h
l
lo
p
l
j
i
lq
p
j
k
lm
p
m
l
lk
l
q
o
lj
l
o
n
k
lm
m
o
l
lm
l
n
m
lm
l
o
m
lj
l
o
n
k
lm
o
m
M,6218,4.00,2.1,0.548,0.600,14,74,1,0,0,42,50
m
ln
l
k
o
ln
n
l
j
m
lq
n
i
m
ln
l
k
n
ll
n
n
o
ll
k
l
o
m
ll
l
m
n
lm
n
o
l
lj
m
m
m
lm
n
l
j
n
lp
l
k
l
lo
o
m
k
lm
o
k
m
lp
l
l
m
m
ll
n
n
m
ll
o
l
m
ll
k
m
n
m
lm
o
m
l
ll
l
n
o
lm
l
l
n
ln
n
k
j
n
ln
n
n
l
lk
o
m
k
ll
M,7194,4.00,2.1,0.542,0.597,16,74,1,0,0,42,50
n
l
m
lo
o
k
l
n
ln
n
j
k
lp
p
j
j
lo
r
l
i
m
lo
m
l
n
ll
m
j
l
lq
n
j
n
ll
k
o
o
n
lj
m
o
n
lk
l
k
n
lp
m
l
l
lo
l
k
m
q
ln
k
k
m
lp
m
k
m
ln
n
j
l
lo
m
m
l
l
ln
l
l
o
lo
k
l
n
lo
m
k
m
ln
o
l
i
o
lp
l
k
k
ln
p
n
j
lk
o
p
M,8171,4.00,1.8,0.545,0.600,14,74,1,0,0,42,50
l
j
ln
m
m
n
lp
m
j
n
lo
l
l
n
ln
n
k
m
o
ll
j
n
p
lm
j
m
n
lj
o
p
j
ll
p
l
j
n
lp
k
k
n
ln
m
n
o
lm
j
n
n
ll
n
m
l
m
ln
m
m
m
lk
m
o
n
ll
j
l
o
p
lm
k
l
p
ln
l
m
l
ln
n
k
j
ln
o
k
l
m
ln
o
m
j
ll
n
m
n
ll
l
n
o
ln
j
l
o
o
M,955,4.00,2.1,0.545,0.594,14,74,1,0,0,42,50
ll
i
l
q
lo
m
k
j
ln
o
m
l
ll
m
n
m
l
lm
n
o
l
lk
l
o
p
lm
k
l
n
l
ln
n
l
l
lm
m
m
m
ll
o
n
j
lm
p
m
l
l
lo
n
m
l
lo
n
i
l
ln
m
l
m
lm
m
m
n
m
lm
m
m
o
lm
k
l
l
ln
n
l
m
m
lo
m
l
l
lm
n
o
m
lj
m
n
n
ll
l
o
n
l
ll
l
n
m
lk
l
M,1932,4.00,2.1,0.545,0.594,14,74,1,0,0,42,50
p
n
ll
m
l
m
ll
m
n
n
o
lk
l
n
o
lk
k
n
m
ln
m
m
m
ll
l
o
j
l
lp
n
k
k
ln
o
l
l
lj
n
p
m
lk
m
p
m
k
ll
n
l
m
lp
l
k
o
ln
k
l
m
o
lm
m
m
m
ln
k
n
m
li
l
n
m
lk
n
q
n
m
ll
k
k
n
lp
n
l
l
lo
n
k
l
ln
m
l
l
m
ln
l
n
n
lm
k
n
o
M,2909,4.00,2.1,0.552,0.603,15,74,1,0,0,42,50
ln
l
k
l
p
ln
j
k
o
lm
n
n
l
lj
o
n
l
lm
n
l
m
k
lo
n
l
m
ll
m
l
l
lo
n
m
k
ll
o
n
m
j
ll
p
m
l
lo
l
m
o
lm
l
l
n
lk
l
o
m
k
ln
n
j
m
lm
o
o
k
lj
n
o
o
ll
j
k
o
p
ln
k
k
n
lo
l
n
l
lj
o
n
l
o
ln
k
o
o
lk
k
k
o
ln
m
m
n
lk
n
M,3885,4.00,2.1,0.548,0.600,13,74,1,0,0,42,50
o
m
i
lm
o
m
n
ln
k
n
m
ll
n
l
m
ln
l
l
l
m
ll
m
n
m
lm
m
m
m
lk
l
n
l
n
lm
q
n
i
ll
n
l
l
ln
n
n
n
ll
j
m
n
n
ll
m
n
l
ll
l
m
m
ln
n
k
k
lm
o
n
j
n
lo
m
k
m
lo
m
n
m
lk
m
o
k
lk
p
o
l
k
lm
m
l
l
lm
l
n
l
lm
n
l
m
lp
m
k
l
M,4862,4.00,2.1,0.545,0.594,15,74,1,0,0,42,50
n
lo
l
k
n
lo
l
l
l
lm
m
o
n
j
ll
n
o
k
ln
p
l
l
lm
m
l
n
lm
k
l
n
o
ll
j
l
p
lp
l
k
m
ln
n
l
m
lm
m
n
m
m
lk
o
p
l
ll
j
l
p
ln
l
m
m
lm
p
m
k
l
lo
n
l
l
ll
m
m
m
lm
n
n
l
n
ln
k
l
o
lk
m
k
n
ll
m
n
n
lo
l
l
l
n
lm
l
k
n
ln
M,5838,4.00,2.1,0.545,0.597,14,74,1,0,0,42,50
n
m
l
lm
m
m
m
lm
m
m
l
m
lo
m
k
o
ln
l
l
n
ln
m
m
l
lm
l
m
o
m
ll
m
n
o
lm
k
j
n
lo
n
l
k
n
lo
o
j
k
ll
n
o
m
lk
n
o
m
lk
k
l
o
o
lm
m
n
m
lm
m
j
n
lo
l
j
l
lo
n
n
l
l
ln
n
n
m
lk
l
o
n
lm
k
m
m
lm
m
o
l
l
ln
m
k
k
lo
m
n
M,6815,4.00,2.1,0.548,0.603,15,74,1,0,0,42,50
n
ln
l
m
l
j
lo
o
l
m
lm
m
m
l
lm
o
l
k
lm
n
n
n
l
lm
o
m
k
ll
n
l
m
ln
n
m
l
ll
m
m
n
m
ll
m
m
m
ln
n
k
l
ln
m
k
j
lp
q
m
k
m
ln
m
m
n
ll
l
o
o
lm
k
j
o
o
lm
j
m
l
lo
o
l
i
ll
q
o
l
lk
l
m
n
m
lm
n
m
m
ln
m
k
l
lo
n
m
l
lm
M,7791,4.00,2.1,0.548,0.600,14,74,1,0,0,42,50
n
m
n
l
ll
m
m
m
ln
m
m
l
lm
n
l
j
m
ln
m
m
l
ln
n
k
m
ln
l
m
m
lo
o
i
l
n
lm
o
j
k
lp
o
m
j
lm
o
m
l
lk
l
o
m
m
lm
m
n
n
ln
l
k
i
lm
p
m
m
ll
n
m
n
l
ln
m
m
m
ll
n
l
k
ln
l
k
o
lo
m
l
n
l
ll
o
n
n
ln
l
j
k
lm
o
l
l
m
lo
n
M,576,4.00,2.1,0.548,0.600,14,74,1,0,0,42,50
m
l
lk
l
n
n
lm
l
n
n
ll
m
m
l
l
lm
p
n
i
ll
o
n
l
ll
l
n
m
lm
l
m
n
m
ll
n
k
m
ln
n
k
l
lm
q
n
i
ll
n
m
l
m
ll
l
n
p
ln
k
l
n
ln
m
l
m
k
ln
p
m
k
ll
o
n
k
lk
n
o
m
lj
l
q
o
j
ll
m
m
m
lm
k
m
p
ll
m
m
o
ln
l
k
m
o
lm
l
m
n
M,1553,4.00,2.1,0.548,0.600,15,74,1,0,0,42,50
ln
m
j
l
ln
o
l
k
lo
m
k
m
o
lp
k
j
n
lo
n
m
k
lm
n
o
k
k
lp
m
l
n
ll
m
o
n
lj
m
n
m
ln
l
l
o
n
ll
n
m
l
ll
n
k
k
lp
n
m
m
ll
m
o
n
m
ll
l
l
m
lk
p
q
m
ll
m
n
l
i
ll
o
m
n
ll
k
o
p
lm
k
m
n
ln
l
l
l
m
lo
l
l
n
ln
l
j
n
lo
l
M,2529,4.00,2.1,0.542,0.594,13,74,1,0,0,42,50
m
m
ln
l
n
n
m
lj
o
p
k
lj
m
o
m
lo
m
k
l
ln
n
l
l
m
ln
l
n
m
lk
l
o
m
lo
l
m
o
lk
l
l
m
m
lm
m
l
m
lm
m
m
m
ll
l
n
o
k
lk
o
n
l
ll
n
m
l
ln
m
l
k
ln
n
m
l
m
lm
o
o
m
lk
l
n
n
ll
l
m
o
ln
k
m
n
n
ll
l
l
n
lo
m
j
l
lo
o
m
k
M,3506,4.00,2.1,0.548,0.597,15,74,1,0,0,42,50
lm
n
n
l
l
ll
n
p
n
lk
l
n
p
ll
l
l
l
o
lo
m
l
l
lm
n
n
n
lj
j
p
n
lm
l
m
n
m
lm
l
m
n
lm
m
o
o
lk
k
m
n
ll
l
n
n
l
ln
q
l
h
ln
p
m
j
ll
p
m
m
lk
m
o
o
l
lj
l
n
n
lm
j
n
o
lk
m
m
l
k
lo
p
m
k
ll
o
l
k
lm
n
o
n
lj
m
o
m
j
lm
M,4482,4.00,2.1,0.545,0.600,13,74,1,0,0,42,50
o
m
m
lm
l
k
n
lo
n
n
m
li
m
o
n
m
lm
l
l
o
ln
m
k
j
ln
o
o
l
ll
p
o
l
l
lj
m
o
m
lj
n
o
m
ll
n
m
l
m
lm
n
l
l
lm
n
n
l
lm
l
o
m
lm
n
m
l
m
ln
k
m
m
ln
m
l
n
ln
k
m
n
lo
l
j
n
n
lm
n
m
m
lj
l
p
o
lm
n
m
k
lm
l
n
o
n
ll
l
m
M,5459,4.00,2.1,0.548,0.603,15,74,1,0,0,42,50
n
lm
k
j
m
lo
n
m
l
l
ln
o
l
n
ll
k
n
p
lj
j
o
p
lm
j
k
q
o
lk
k
m
n
lm
l
m
o
ln
m
m
l
lk
m
o
n
m
ll
n
n
l
lk
n
n
m
ln
l
m
m
lk
m
m
n
n
ll
n
n
n
ll
n
m
l
ll
m
l
m
o
lo
m
i
l
lo
o
l
k
lk
n
q
n
lj
k
n
o
m
lk
m
m
o
lm
l
n
n
ll
M,6435,4.00,2.1,0.548,0.597,14,74,1,0,0,42,50
l
n
n
ll
k
n
m
l
ln
m
l
m
ln
l
n
m
lm
k
m
o
lm
n
m
l
k
ln
o
k
l
ln
m
p
n
li
k
m
o
o
ln
j
l
n
lm
l
l
m
ln
p
m
m
lk
m
k
o
m
lm
n
l
l
ln
n
n
l
lj
n
p
k
lj
l
n
n
o
lm
i
n
n
ln
k
l
o
ll
l
l
m
lm
m
n
m
m
ll
l
n
m
lm
n
m
m
lm
j
n
M,7412,4.00,2.1,0.545,0.597,17,74,1,0,0,42,50
n
m
ln
m
l
l
lm
m
o
m
ll
m
n
m
lm
m
m
n
l
ll
m
k
n
lo
m
l
m
lm
n
k
l
ll
p
n
l
n
ln
m
l
m
lk
l
n
l
ll
o
m
m
lo
m
k
l
o
ll
l
m
n
lm
l
l
n
lm
n
n
k
l
lm
l
m
m
ln
o
m
k
lm
n
o
n
li
m
n
m
m
ll
l
n
m
ln
m
m
m
lm
l
l
n
lm
l
n
o
j
M,196,4.00,2.1,0.552,0.600,15,74,1,0,0,42,50
lm
p
n
k
ln
m
l
m
lo
j
j
n
ll
n
q
n
j
ll
o
n
l
ll
m
n
n
ll
n
n
l
l
ll
n
l
m
ll
m
m
n
ln
m
l
n
lm
l
m
k
n
lo
n
l
l
lm
n
m
l
lp
m
l
m
lk
l
p
n
j
lm
o
m
j
ln
n
l
k
ll
o
n
m
lk
n
n
l
n
ll
m
l
l
lo
n
l
l
ll
l
n
o
m
ln
l
k
m
lm
m
M,1173,4.00,2.1,0.545,0.594,15,74,1,0,0,42,50
m
n
lo
k
m
m
ln
n
k
m
n
ll
o
o
k
ll
m
o
l
lj
m
n
o
lm
k
l
m
o
ln
l
k
m
lm
n
p
l
lk
m
o
m
ll
m
n
n
k
lk
n
o
m
lj
n
p
m
ll
l
o
k
l
ln
n
m
k
lk
p
o
m
ll
i
m
q
lo
m
l
k
o
lp
l
j
l
lp
m
l
n
lm
l
n
m
lm
n
m
k
l
lo
n
l
l
ln
m
m
k
M,2150,4.00,2.1,0.552,0.603,15,74,1,0,0,42,50
ll
o
m
k
ln
n
m
m
l
lo
l
l
n
lm
m
m
m
ll
n
p
k
f
lq
r
l
k
lk
n
o
k
lk
o
n
k
ll
n
n
m
m
lk
m
n
m
lo
l
k
o
lp
l
h
l
lq
o
l
j
n
lm
l
p
n
lk
l
m
o
lm
m
l
l
ln
l
l
l
n
ln
n
n
k
ll
o
n
j
lm
o
l
m
m
lk
n
n
l
ln
m
l
n
ln
m
k
j
lo
o
M,3126,4.00,2.1,0.545,0.597,13,74,1,0,0,42,50
o
k
j
lo
p
k
k
lm
o
o
k
lm
o
m
k
ln
p
l
i
p
lp
n
l
l
ln
k
m
n
ll
n
l
k
ll
l
n
o
n
lm
l
n
l
lm
m
m
n
lm
n
k
k
o
lo
n
m
k
ln
m
m
l
lk
m
m
o
lm
k
m
l
l
ln
m
l
m
lo
n
l
l
ll
m
m
n
ll
k
l
n
o
lo
l
k
m
lp
n
j
m
lo
n
l
n
ll
k
n
n
