#GemCSV1.10
#[msSamp]ADC #m=10,0
#[DmsSamp,]ADC
#G,msPPS,msLag,yr,mo,day,hr,min,sec,lat,lon
#M,ms,batt(V),temp(C),A2,A3,maxLag,minFree,maxUsed,maxOver,gpsFlag,freeStack1,freeStackIdle
S,128
#Firmware0.963-15_2022-03-14T00:32:06Z
C,1,15,20,0,0,0
D2808,404
n
n
n
ll
i
l
o
k
ll
m
m
n
lo
m
k
l
lm
k
j
o
ln
l
n
n
n
lk
j
m
p
ll
l
l
k
lk
o
o
n
ll
l
l
m
m
ll
k
k
o
lo
m
i
M,3327,4.00,3.9,0.567,0.615,51,70,5,0,0,42,98
l
ln
n
n
l
lj
l
o
m
k
lh
i
p
p
lm
k
l
o
lm
k
j
l
o
lo
m
j
j
ll
o
p
k
lj
k
k
o
ln
j
k
n
k
ll
n
j
l
lo
m
l
m
lm
m
j
j
ln
l
m
l
j
lm
p
k
j
lo
l
j
m
lm
k
m
l
lm
o
k
i
n
lj
j
l
n
ln
k
k
o
lk
i
l
l
l
ll
m
j
i
lk
n
n
i
lh
l
l
l
lm
M,4303,4.00,3.9,0.564,0.612,15,74,1,0,0,42,98
k
n
n
h
lh
p
l
m
ln
h
h
l
lm
o
j
i
lk
l
o
l
l
lj
i
l
k
lk
n
m
l
lk
h
k
p
ln
g
j
l
m
lm
l
n
m
lj
l
l
l
lk
n
m
j
l
ln
m
l
j
ll
m
l
i
ln
l
j
k
lo
k
l
k
m
ln
l
j
m
lm
j
l
m
lm
k
l
l
lm
l
m
j
l
lp
o
g
n
lp
k
j
l
ll
m
n
l
lj
m
q
M,5280,4.00,3.9,0.567,0.612,14,74,1,0,0,42,98
k
i
lp
o
k
m
ll
l
o
o
ln
n
l
k
n
ln
m
n
m
ln
m
n
o
lm
m
m
o
ln
k
n
p
m
lj
l
o
m
lm
m
n
o
ll
k
n
m
lm
l
o
p
m
lm
n
n
n
lp
l
k
q
lo
k
m
p
lp
m
i
n
o
ln
p
n
l
lm
p
p
l
lm
r
m
l
r
lq
l
n
o
lm
m
p
o
lk
p
n
l
lo
n
o
s
m
lj
p
o
m
M,6257,4.00,3.9,0.573,0.621,15,74,1,0,0,42,98
lo
m
m
p
ln
m
p
o
ll
n
n
m
n
lp
o
o
o
lp
m
m
o
lq
n
m
o
lo
l
p
p
o
lo
m
p
q
lm
m
o
p
lp
n
m
m
p
lo
m
m
s
lq
n
n
l
lo
q
l
n
lq
o
q
n
l
lo
p
p
m
lm
p
p
p
ln
m
n
p
lq
p
m
l
n
ls
p
j
o
lq
o
o
n
lm
m
r
q
ln
n
n
p
p
ll
m
n
p
lp
o
M,7233,4.00,3.9,0.570,0.621,14,74,1,0,0,42,98
p
o
ln
m
n
q
p
lo
l
m
q
lr
o
m
n
lo
p
q
m
ln
q
p
o
o
ln
m
m
r
lo
o
p
n
ln
n
o
o
lp
p
n
o
p
lp
m
l
n
lq
p
q
p
ll
p
q
m
lo
q
l
n
p
ln
p
q
o
lo
n
m
p
ln
n
o
p
o
ll
q
p
l
lm
r
o
n
ln
m
o
o
ln
q
n
n
m
ll
p
q
n
ln
m
k
o
lp
o
m
n
M,18,4.00,3.9,0.561,0.615,14,74,1,0,0,42,98
ll
n
q
o
k
lk
n
n
o
ln
k
k
o
lp
o
j
m
lp
o
m
m
m
lm
l
p
o
lm
m
m
p
ln
l
l
n
m
ln
p
o
j
ll
n
m
m
lo
p
k
j
lm
p
o
m
i
lm
r
o
l
lk
l
o
n
lk
l
m
l
lo
l
i
n
p
lo
k
h
n
lp
m
n
l
lm
m
k
m
lp
m
l
l
n
ln
m
n
m
lk
j
p
p
ll
k
m
n
l
lo
M,994,4.00,3.9,0.567,0.618,16,74,1,0,0,42,98
n
j
k
lr
m
j
n
lm
k
o
l
lk
n
p
n
l
ll
l
n
p
li
k
m
p
ln
i
k
r
lo
m
l
m
l
lk
n
o
k
ln
o
j
l
lq
m
j
n
ln
n
n
m
m
ll
o
o
k
ll
o
n
l
lk
p
o
m
m
ll
m
m
n
lm
n
l
m
lp
m
m
o
lm
j
p
p
i
ll
r
l
i
lp
q
n
k
lk
r
o
j
ll
p
j
k
p
lp
m
m
M,1971,4.00,3.9,0.564,0.621,14,74,1,0,0,42,98
m
lm
l
l
n
ln
n
n
m
lo
l
j
o
p
ln
j
m
n
ln
m
l
n
lp
o
k
l
m
lo
o
l
p
lo
k
k
o
lr
m
h
o
lq
n
m
l
m
lo
m
l
l
lm
o
o
p
lj
l
p
o
ll
l
o
o
l
ln
n
k
l
lq
n
m
m
lk
n
m
m
lq
m
l
n
k
lk
p
n
p
lm
j
n
q
lm
k
k
m
o
lp
k
k
m
ll
n
o
o
ln
M,2947,4.00,3.9,0.564,0.618,14,74,1,0,0,42,98
k
l
m
lm
o
m
m
l
lp
l
k
n
ln
m
l
n
ll
m
r
o
lj
l
q
n
i
lj
n
o
m
ln
n
k
k
ln
o
m
m
lm
k
m
o
n
ln
j
l
o
ll
m
m
l
lo
n
k
l
n
lm
m
n
l
lo
q
j
i
ln
o
n
m
ln
n
m
h
l
lq
o
k
n
ln
i
m
o
ll
k
n
l
ll
o
l
m
m
lm
n
m
m
li
j
n
n
lo
l
j
M,3924,4.00,3.9,0.567,0.618,16,73,2,0,0,42,98
m
ln
p
n
i
i
lo
p
o
m
li
k
n
m
ln
l
l
o
q
lh
j
r
o
lj
k
o
n
lh
h
q
r
lk
i
o
o
j
lm
o
k
m
ln
l
k
l
lo
l
l
k
lm
n
l
o
n
lj
k
l
l
lo
m
l
m
ln
k
k
l
t
D4538,15
d
D-26
m
D4577,16
k
d
o
ls
i
j
k
lo
p
i
k
p
lp
k
k
n
lk
l
n
m
lm
n
p
g
lj
q
m
m
o
M,4900,4.00,3.9,0.567,0.615,150,60,15,0,1,42,98
lm
l
m
k
ln
n
m
l
lm
k
n
p
lj
l
k
k
q
lo
l
l
l
lm
m
m
l
lm
n
o
k
li
n
p
l
k
lo
l
j
o
lo
j
l
p
lo
m
k
k
o
ll
m
n
k
lm
n
p
n
lk
k
k
o
ln
j
l
n
m
lm
n
j
l
lp
o
l
m
lk
l
n
o
lm
k
m
o
o
lk
n
o
j
lk
p
n
k
ln
n
k
k
lp
p
n
l
k
lm
n
M,5877,4.00,3.9,0.567,0.618,14,74,1,0,1,42,98
l
l
ll
o
k
n
lo
l
n
m
n
ln
k
m
n
lo
m
j
l
lm
n
p
o
lj
l
o
n
k
lk
o
o
l
lm
p
o
l
lk
k
l
l
ln
o
l
k
m
ln
l
n
n
ln
n
l
k
ll
o
o
l
ll
o
m
k
o
ln
l
k
l
ln
o
l
j
lm
o
m
m
l
ll
m
o
m
lk
n
p
k
lk
m
n
k
ll
n
l
l
m
lo
n
k
m
ln
n
j
j
M,6854,4.00,3.9,0.567,0.621,14,74,1,0,1,42,98
lo
o
o
k
lj
n
m
n
l
li
o
l
m
lq
n
i
j
lm
n
l
l
lm
m
m
o
l
lk
m
n
n
ln
i
j
o
lm
m
l
l
n
lm
m
o
k
lj
m
p
n
li
k
o
p
ln
l
j
l
s
ll
f
n
s
lk
i
o
n
lj
m
p
m
lj
m
r
m
j
ll
o
n
j
ln
n
m
k
ln
o
l
m
ll
n
q
k
l
lm
m
o
l
lk
l
o
m
ln
m
M,7830,4.00,3.9,0.567,0.621,16,74,1,0,1,42,98
m
m
l
lj
n
p
k
lj
n
n
m
lp
n
l
m
ll
m
p
k
k
lm
m
o
n
ll
l
l
o
ln
i
m
o
lm
m
n
n
j
ll
p
m
j
ll
o
o
j
lk
m
p
n
lm
l
m
m
o
lm
l
m
l
lm
m
m
o
lm
j
m
p
k
lj
p
q
l
ll
n
i
l
lo
o
l
j
ln
o
n
o
l
lk
o
k
l
ln
n
m
o
lm
k
n
n
lk
l
m
o
M,615,4.00,3.9,0.567,0.624,21,73,2,0,1,42,98
l
lk
n
k
l
lm
m
l
l
ln
p
l
i
ln
p
k
j
m
lq
n
j
j
lm
o
l
m
ln
o
l
m
l
ll
p
l
i
ln
r
k
k
lm
l
k
l
ln
m
l
l
l
ln
m
k
k
lm
o
m
j
lk
o
n
l
lk
l
m
o
k
lj
l
n
o
lo
n
i
k
ln
m
j
n
ln
l
n
n
k
lo
n
j
k
ln
o
n
l
lj
k
n
p
k
lk
o
n
k
lj
M,1591,4.00,3.9,0.570,0.618,15,74,1,0,1,42,98
n
n
j
lo
o
l
j
lk
n
n
j
m
lk
m
k
k
lo
p
l
k
lk
n
o
j
ll
l
k
n
n
lj
l
p
m
lh
l
o
l
lm
m
k
k
lm
n
m
k
k
lo
n
i
m
ln
k
l
n
lm
j
j
l
n
lm
o
o
h
lj
m
l
m
lk
p
l
h
lo
o
l
l
m
ll
m
k
l
lp
k
k
m
lp
j
j
p
ln
i
k
q
l
lh
n
p
i
ll
o
j
M,2568,4.00,3.9,0.570,0.621,14,74,1,0,1,42,98
k
ll
n
m
k
lm
j
k
o
m
ll
k
l
o
lo
j
g
l
lo
k
l
m
o
lk
j
k
l
lm
m
o
m
lj
j
p
m
lh
m
o
n
k
lj
m
m
j
lk
k
m
n
lm
k
m
m
ln
i
i
o
q
ll
i
j
n
lq
k
i
j
ln
q
k
j
lm
n
l
m
m
lj
k
m
o
ll
l
m
l
lm
i
m
m
j
lm
p
m
i
lm
p
j
n
lo
l
m
k
ll
M,3544,4.00,3.9,0.567,0.618,14,74,1,0,1,42,98
m
m
m
n
lm
l
l
n
lj
k
o
p
lk
m
n
i
ll
p
m
i
o
lr
k
i
o
ll
l
q
n
li
m
n
j
ln
p
i
l
p
ll
m
j
m
lo
l
k
m
lp
o
l
k
m
lp
o
j
l
ln
m
h
o
ln
l
k
n
lo
k
o
l
l
ln
j
o
p
ll
k
o
n
ll
m
n
l
lm
n
j
k
o
ln
m
n
l
ll
l
p
o
lj
l
o
l
ll
p
k
M,4521,4.00,3.9,0.567,0.618,14,74,1,0,1,42,98
i
r
lq
h
l
q
lk
k
r
n
lj
j
q
n
l
ll
l
n
o
ll
m
o
l
lk
p
o
k
lm
q
n
j
j
lp
q
k
n
lo
m
j
m
lq
m
k
o
lo
k
h
m
s
ll
j
q
r
lj
j
o
q
lm
l
l
n
lp
m
o
l
l
lo
n
o
j
lo
s
n
j
lk
o
p
k
l
ll
q
o
j
lk
q
o
j
lo
m
n
o
li
o
s
l
i
lo
p
o
m
M,5498,4.00,3.9,0.573,0.621,14,74,1,0,1,42,98
ll
m
l
o
lr
k
l
q
lo
j
k
t
l
lj
q
s
h
lj
v
q
g
lm
t
m
m
lp
l
l
n
j
ln
u
j
e
lr
w
i
f
lp
t
n
l
n
lp
n
n
p
lj
j
q
p
ln
i
m
t
lq
j
i
r
s
li
h
r
r
lg
m
s
m
lj
o
n
m
lp
o
k
l
p
lo
o
m
l
lo
q
n
m
lj
n
r
o
ll
l
q
l
l
lt
m
f
m
lu
m
M,6474,4.00,3.9,0.567,0.621,15,74,1,0,1,42,98
k
p
lp
l
j
k
o
lq
l
p
q
li
h
u
q
li
l
q
s
lo
j
l
o
o
lm
m
o
n
ll
o
n
l
lp
n
n
m
lo
m
h
m
t
lp
l
j
j
lr
t
k
l
lo
o
p
l
lh
l
p
s
p
lg
i
t
r
li
j
r
q
lj
n
t
m
h
lk
o
p
m
ln
l
q
m
li
p
m
l
lm
o
m
n
n
lm
m
n
m
lm
m
m
m
ln
o
m
i
M,7451,4.00,3.9,0.567,0.621,15,74,1,0,1,42,98
lo
r
o
j
l
lm
o
m
o
lp
j
m
n
lp
o
g
j
ls
s
j
h
p
ln
k
m
n
lk
p
n
g
ln
s
m
j
m
lp
l
l
k
ll
m
q
p
lj
j
o
q
ll
j
n
m
l
lq
n
h
k
lo
n
n
n
lk
k
r
p
lf
k
q
p
h
li
o
q
p
ln
h
g
q
lr
i
k
n
lo
j
k
o
l
lm
l
n
p
lj
k
n
l
ll
n
n
i
o
lp
M,235,4.00,3.9,0.570,0.621,16,74,1,0,1,42,98
j
h
n
lq
k
j
n
ln
l
l
k
ln
n
j
l
q
lm
k
n
n
lm
j
o
o
li
j
l
o
lr
l
i
j
o
lq
m
g
k
lq
p
l
g
li
n
n
l
ll
o
k
k
p
lm
j
l
q
lj
k
o
n
li
m
p
l
n
lk
j
p
o
le
k
x
j
lc
o
t
i
lh
m
l
l
o
lp
k
k
k
lj
t
p
f
lk
o
l
k
ln
n
k
n
k
lk
m
n
M,1212,4.00,3.9,0.567,0.624,14,74,1,0,1,42,98
p
ll
i
k
n
lp
i
i
p
lm
k
o
n
k
ln
p
j
k
lm
k
l
m
ll
o
q
i
i
lo
o
m
m
ln
i
j
o
ln
k
m
m
lm
k
m
p
j
ll
m
l
m
ln
k
l
n
lk
n
n
m
lm
m
l
m
n
lm
l
m
j
ln
p
k
k
ln
l
k
p
ll
g
o
n
i
lm
k
l
m
lp
n
k
l
lp
l
g
m
q
ll
n
m
l
lj
j
o
o
li
M,2188,4.00,3.9,0.564,0.618,15,74,1,0,1,42,98
j
m
l
ll
m
n
k
k
lp
m
j
k
ln
p
h
k
ln
n
j
j
lp
p
i
j
o
lm
l
n
k
lj
l
o
o
lk
k
l
l
lm
o
l
j
j
lo
n
m
l
ll
j
m
q
lk
k
m
l
m
lp
m
h
k
ln
n
o
n
lj
l
o
m
li
i
m
n
l
lk
m
m
j
ln
p
n
m
lh
m
o
l
ln
l
j
n
o
ll
f
l
p
lm
i
n
m
ll
n
l
M,3165,4.00,3.9,0.567,0.615,14,74,1,0,1,42,98
g
ll
p
p
o
k
ll
m
h
n
lo
l
k
j
lo
o
l
m
n
lf
k
s
n
li
n
o
h
ll
q
l
h
ln
n
i
l
m
ln
j
m
n
ln
l
n
m
lk
k
p
l
lj
m
p
l
k
lj
m
p
l
ll
n
k
i
ln
r
l
k
ln
m
k
m
m
lj
k
n
l
ln
m
j
l
lo
k
m
m
j
ll
o
m
k
ln
o
i
i
lo
q
m
k
lo
m
i
m
o
M,4141,4.00,3.9,0.567,0.624,17,74,1,0,1,42,98
lm
k
n
l
lk
j
o
m
lm
p
j
i
ln
q
k
l
m
lm
m
m
l
lm
n
l
m
ll
o
l
k
lm
o
l
k
p
lk
h
o
o
lo
i
m
o
ln
k
n
n
l
lo
n
j
m
ln
l
m
n
lk
j
o
n
lm
l
m
k
n
lo
l
l
m
ll
m
m
n
lq
l
j
o
lo
m
m
k
k
lo
l
k
o
ln
l
m
n
ll
o
n
l
ln
j
l
q
q
lk
i
M,5120,4.00,3.9,0.561,0.615,15,74,1,0,1,42,98
n
q
ll
k
m
o
lo
j
k
n
p
lm
l
j
n
lm
n
l
l
lo
n
m
n
ll
k
n
n
o
ll
k
n
m
lm
m
k
p
lr
k
l
o
ll
l
p
o
h
lo
p
n
k
li
l
r
p
lk
k
n
o
ll
n
l
l
l
ln
q
n
l
lm
p
m
k
ln
n
l
m
n
ln
m
m
l
ln
p
n
l
lp
l
l
n
lm
o
n
o
l
ll
n
o
m
ll
n
o
n
M,6095,4.00,3.9,0.567,0.615,16,74,1,0,1,42,98
ll
o
n
n
ln
j
k
q
q
ll
m
o
l
ln
n
p
l
lk
r
o
l
lm
o
j
o
q
ln
m
k
l
lq
p
j
k
lr
p
l
l
k
lm
p
q
l
li
o
q
m
lk
n
n
l
lo
o
k
k
q
lo
j
o
m
ln
n
k
p
lo
l
s
n
lj
n
n
l
q
lm
l
k
l
lp
r
m
m
ln
n
o
l
o
lo
l
o
k
lk
n
r
m
ln
o
m
k
lo
p
M,7071,4.00,3.9,0.567,0.615,15,74,1,0,1,42,98
m
l
o
lm
m
o
k
ln
o
l
m
ln
k
m
o
ln
o
o
n
m
ln
n
l
o
ln
l
n
l
lk
q
n
n
lo
l
l
q
n
lj
o
o
g
lm
r
l
i
lp
p
k
l
lm
m
n
n
l
lm
o
o
m
lj
o
m
l
ln
n
n
j
m
lm
l
n
l
lk
m
n
m
ll
n
k
j
ln
t
k
f
n
lm
m
p
o
lj
k
l
j
ln
n
k
k
lq
m
k
n
M,8048,4.00,3.9,0.567,0.621,14,74,1,0,1,42,98
k
lm
m
i
l
lq
o
j
k
ln
o
k
k
ll
n
l
k
n
ll
j
j
o
lm
k
m
k
ln
l
i
k
l
lm
m
k
l
lj
m
m
j
lm
m
j
j
ln
m
j
l
m
ll
k
l
n
ll
j
l
l
lk
n
j
k
lm
l
j
j
n
lj
f
o
o
lj
m
m
h
lk
m
n
m
li
l
l
l
k
lh
m
p
l
lj
k
k
m
ll
k
l
l
m
ll
n
j
g
lo
M,832,4.00,3.9,0.567,0.624,15,74,1,0,1,42,98
o
g
j
lm
i
j
o
ln
j
i
j
l
ln
m
k
j
lk
n
k
l
ll
k
j
n
ln
j
k
o
l
li
l
n
n
ll
j
l
l
ln
q
h
g
lm
o
m
l
l
lk
k
l
m
lm
j
j
n
lm
j
k
l
m
lm
j
m
o
lk
l
m
l
lm
n
m
l
ln
l
k
l
k
ln
r
l
h
lm
p
l
i
lk
n
p
m
lj
o
n
k
l
ln
k
k
p
lo
l
j
M,1809,4.00,3.9,0.564,0.621,13,74,1,0,1,42,98
l
ln
l
n
p
lm
n
o
n
m
lk
l
k
m
lo
l
m
p
lo
j
l
m
o
lm
l
p
p
ll
o
k
k
lp
p
m
n
ln
n
n
k
m
lp
o
l
n
ln
m
l
o
lp
n
p
m
lk
l
q
o
l
lm
p
q
n
ll
l
p
q
ln
m
l
m
lr
n
p
l
m
lo
n
n
o
lm
m
q
q
ll
k
q
s
l
lk
n
q
p
lq
m
l
p
lq
o
n
o
lp
M,2785,4.00,3.9,0.567,0.621,14,74,1,0,1,42,98
k
n
t
o
ll
m
p
q
lp
m
o
p
lq
m
l
q
ls
m
p
q
m
ln
p
o
q
lp
o
p
p
ln
l
s
o
lm
q
r
o
l
lo
q
q
n
ln
p
p
m
lr
s
o
m
p
lq
p
n
o
lp
q
q
o
lp
q
p
p
lo
o
n
o
p
lq
o
o
p
lp
o
n
r
lr
n
n
n
lq
q
o
p
p
lp
s
n
k
lo
t
p
l
lp
s
n
n
lq
n
n
M,3762,4.00,3.9,0.567,0.618,15,74,1,0,1,42,98
r
r
lj
m
s
m
lk
o
r
o
lm
n
o
m
l
lr
o
l
o
lr
p
m
n
lp
l
m
p
lp
m
k
o
n
lp
o
k
n
lq
l
m
o
ln
l
n
p
lp
l
l
p
n
lk
k
p
p
lk
l
k
m
ln
n
l
k
lm
n
m
l
l
ln
i
l
l
lk
m
l
j
lm
n
j
k
n
lo
j
h
l
ll
i
m
l
li
k
j
j
ll
n
k
h
j
lj
i
m
k
M,4739,4.00,3.9,0.567,0.618,14,74,1,0,1,42,98
li
h
j
m
ll
h
g
j
lm
k
j
h
k
lj
k
i
f
lk
k
l
i
lg
m
n
g
le
j
m
k
i
lk
i
j
m
ll
j
k
h
li
m
j
i
j
lj
j
j
k
ll
l
i
i
lj
k
k
k
ll
k
i
l
l
ll
j
i
m
lk
k
l
j
ln
k
h
l
ln
l
j
k
k
lk
n
l
f
lk
r
n
k
lj
l
l
o
ll
l
l
i
l
lp
m
k
k
lm
m
M,5715,4.00,3.9,0.567,0.624,14,73,2,0,1,42,98
n
n
li
k
q
q
n
ll
j
k
m
ln
p
o
k
ll
m
o
k
lk
n
o
n
k
lm
m
m
q
lo
h
k
r
lo
k
k
n
lr
o
j
k
o
lo
l
n
o
ln
m
o
k
lj
o
q
m
ln
o
l
o
o
lm
o
n
o
lq
m
l
n
lp
k
o
p
l
lj
p
q
n
lm
o
n
o
lp
n
k
p
lq
m
l
n
q
lo
m
k
n
lm
s
o
i
ln
p
o
m
M,6692,4.00,3.9,0.567,0.630,16,74,1,0,1,42,98
lm
m
n
p
m
ln
m
m
o
lo
l
j
m
lp
m
k
k
ll
m
n
l
i
ll
n
l
i
ll
o
l
m
ll
i
l
o
l
lk
l
o
n
lh
m
o
j
li
o
q
j
lh
l
q
m
k
lm
j
l
p
lo
j
j
n
lp
o
j
i
ln
k
l
n
n
lm
i
l
q
ln
k
j
P,7055.25
l
R,6,$GPRMC,204621.971,V,,,,,0.30,0.00,020423,,,N*45
lm
n
q
j
lj
m
m
m
l
ll
k
l
m
lm
k
m
o
ll
k
l
k
n
lq
M,7668,4.00,3.9,0.564,0.624,14,74,1,0,1,42,98
n
l
l
ll
n
l
m
lm
l
m
l
lm
k
m
p
n
lj
l
m
m
ll
n
k
i
ln
o
m
m
lk
l
q
n
k
ln
n
m
n
lk
m
m
k
lm
n
i
k
ln
p
l
m
m
ll
n
n
m
ln
l
m
n
lp
n
l
k
k
ln
n
l
m
lo
p
p
l
li
n
p
o
P,8031.75
ll
R,6,$GPRMC,204622.971,V,,,,,0.41,0.00,020423,,,N*40
m
n
n
l
lm
l
n
m
ln
k
l
n
lo
n
l
m
lo
n
m
p
p
li
j
q
M,453,4.00,3.9,0.564,0.621,16,73,2,0,1,42,98
n
li
p
r
m
ll
m
n
l
lm
n
p
q
m
lk
o
n
l
lm
m
l
m
lm
n
m
m
n
lm
m
l
o
lq
l
l
n
ln
k
i
r
lp
l
o
l
l
ln
l
n
m
ll
q
n
j
lm
m
m
o
lo
l
l
l
l
ll
m
m
n
ll
k
o
l
ln
n
o
n
lk
n
P,816.25
m
R,6,$GPRMC,204623.971,V,,,,,0.48,0.00,020423,,,N*48
m
m
ln
n
l
n
lp
n
k
m
lm
m
n
l
i
ll
n
r
l
lj
m
l
n
lk
M,1429,4.00,3.9,0.567,0.627,15,74,1,0,1,42,98
m
p
l
li
n
m
k
n
lp
l
k
n
ll
k
p
l
ll
n
q
m
lk
n
l
k
k
lk
n
l
n
ln
l
m
k
lm
l
l
l
lo
n
h
m
o
ln
j
l
o
lo
m
m
m
lh
l
p
o
j
ll
n
m
k
lk
o
q
l
lk
l
l
n
ll
n
l
j
m
ln
m
k
n
ln
k
P,1792.75
m
R,6,$GPRMC,204624.971,V,,,,,0.49,0.00,020423,,,N*4E
m
ln
l
m
k
ll
n
k
m
o
ln
n
j
m
lo
n
n
n
lj
m
n
M,2406,4.00,3.9,0.570,0.627,13,74,1,0,1,42,98
l
ll
m
l
m
p
ln
k
j
o
ln
h
n
q
lj
l
l
m
n
lp
m
j
m
lq
p
k
k
lm
m
m
n
ln
j
m
q
o
lj
l
p
m
ll
k
l
n
lp
l
k
p
ln
l
m
k
l
lp
m
i
m
lr
m
m
o
lk
l
n
m
lm
p
k
m
q
lm
l
l
l
lk
n
P,2769.25
R,6,$GPRMC,204625.971,V,,,,,0.47,0.00,020423,,,N*41
n
j
lk
n
o
n
m
lm
k
k
n
ln
m
k
m
lo
m
k
m
lo
k
n
m
j
M,3382,4.00,3.9,0.570,0.618,14,74,1,0,1,42,98
lm
o
m
n
lo
i
l
m
ln
r
k
k
lm
m
m
i
n
lp
l
i
l
lo
m
k
m
lm
j
n
m
lk
l
n
o
l
li
j
m
r
ln
g
k
m
lo
n
l
k
k
lo
k
i
o
lo
i
l
o
lm
j
k
m
li
m
n
l
l
lk
l
j
m
ll
k
l
l
lj
n
m
P,3746.00
k
R,6,$GPRMC,204626.971,V,,,,,0.43,0.00,020423,,,N*46
lj
i
k
o
l
lj
l
o
l
lk
i
m
o
ll
m
j
h
lo
m
h
m
l
li
l
M,4359,4.00,3.9,0.567,0.624,15,74,1,0,1,42,98
n
h
ll
m
k
m
lk
m
k
l
m
lk
l
l
j
ln
m
l
l
lk
k
m
m
lj
j
l
n
l
lj
i
n
o
lj
k
k
l
ll
k
o
j
lf
j
n
p
i
lg
k
o
n
lk
k
k
k
lm
k
k
l
ll
l
k
l
l
lk
l
m
l
li
n
o
i
lk
k
l
m
l
ln
P,4722.50
R,6,$GPRMC,204627.971,V,,,,,0.42,0.00,020423,,,N*46
j
i
j
lo
k
g
l
lp
l
j
l
ln
k
l
k
k
ll
l
m
j
ll
m
l
k
M,5336,4.00,3.9,0.567,0.621,14,74,1,0,1,42,98
ll
j
l
o
ln
j
k
l
m
lk
l
j
j
ln
j
i
n
lp
l
h
h
ll
n
n
i
j
lk
k
m
o
lj
i
m
m
ll
k
k
n
m
lj
i
k
o
lm
k
m
m
lj
j
l
l
lo
k
i
l
o
ln
j
k
l
lo
m
k
o
ll
j
m
m
lk
l
k
p
o
lg
k
P,5699.00
n
R,6,$GPRMC,204628.971,V,,,,,0.43,0.00,020423,,,N*48
k
ln
m
k
n
ll
l
k
k
ln
m
k
m
m
ll
m
k
k
lm
n
l
j
lk
o
M,6312,4.00,3.9,0.567,0.630,14,74,1,0,1,42,98
n
k
j
lj
n
q
m
lg
l
n
q
lo
j
k
o
ln
j
m
m
o
lp
l
m
l
lm
j
k
p
ll
l
n
n
lk
l
k
k
m
lo
m
m
k
lm
n
n
k
lk
l
j
l
lq
m
k
m
p
ll
h
n
m
ll
n
l
l
ll
m
l
k
o
lm
i
l
p
lo
h
h
o
lo
l
P,6675.50
k
R,6,$GPRMC,204629.971,V,,,,,0.48,0.00,020423,,,N*42
k
lm
o
k
h
n
lm
l
k
i
lm
n
o
k
li
n
m
l
ll
j
l
p
M,7289,4.00,3.9,0.567,0.621,14,74,1,0,1,42,98
m
lk
l
o
l
ln
k
l
m
ll
l
m
k
lk
m
k
k
k
lm
l
h
m
lo
l
k
l
ln
o
l
m
k
lk
m
m
m
lk
k
l
l
ll
n
p
l
lh
k
o
o
o
lk
k
l
k
lk
o
m
j
lm
o
j
k
lo
o
l
l
m
lm
k
k
m
ln
m
k
k
ll
o
m
P,7652.00
j
R,6,$GPRMC,204630.971,V,,,,,0.54,0.00,020423,,,N*47
lm
m
k
n
p
lj
k
o
l
lk
k
q
o
lk
n
m
k
k
lo
p
n
l
ll
M,73,4.00,3.9,0.567,0.621,14,74,1,0,1,42,98
o
m
l
lk
m
n
l
ll
p
o
l
n
ll
j
l
o
ln
l
l
m
lm
m
o
n
lm
n
n
o
m
ll
k
j
p
lr
l
j
l
lq
m
l
m
lp
m
k
m
n
lo
k
k
p
lo
j
l
m
ln
r
p
i
m
ln
o
p
l
lj
m
p
n
lj
m
q
n
lk
j
n
r
n
lk
j
n
o
lo
P,436.50
n
R,6,$GPRMC,204631.971,V,,,,,0.60,302.44,020423,,,N*40
j
m
ln
n
n
m
ln
p
n
l
j
lp
r
m
h
lm
o
l
M,1050,4.00,3.9,0.567,0.621,15,74,1,0,1,42,98
q
ln
j
j
o
lr
l
k
m
o
ln
m
m
l
lp
o
i
m
lq
o
m
k
j
lp
p
n
n
lm
l
k
n
lp
p
k
k
lq
p
k
j
n
lp
l
i
r
lp
g
n
u
ll
j
p
n
lm
m
n
m
k
lm
o
o
m
ln
m
o
q
lk
g
k
t
lq
j
l
o
n
lo
p
l
l
ll
n
o
P,1413.25
k
R,6,$GPRMC,204632.971,V,,,,,0.63,305.37,020423,,,N*43
lk
n
o
q
o
lm
m
k
l
lk
m
n
p
lr
k
i
q
ln
M,2027,4.00,3.9,0.567,0.618,14,74,1,0,1,42,98
i
q
o
j
ln
o
m
n
lk
k
p
n
ll
o
m
m
lm
o
n
n
m
ll
l
m
n
lp
l
h
o
lt
l
g
p
lp
o
q
m
k
lo
l
m
o
ln
k
k
m
ln
p
l
l
n
ln
n
m
n
lo
l
k
p
lp
j
k
q
lo
j
l
o
q
lp
j
i
n
lo
n
m
l
ln
m
m
k
ln
n
P,2389.75
m
R,6,$GPRMC,204633.971,V,,,,,0.53,305.37,020423,,,N*41
o
n
ln
k
o
o
lk
j
n
n
ln
m
m
m
lo
m
m
M,3003,4.00,3.9,0.564,0.621,14,74,1,0,1,42,98
n
j
lo
q
i
k
ln
q
m
k
ln
m
l
q
p
lm
m
j
m
lq
m
k
p
lo
l
n
m
ln
m
j
l
n
ln
l
o
p
lk
k
o
l
ln
o
o
n
lm
l
m
m
p
lo
k
n
l
lk
q
o
k
lm
m
n
l
lk
o
m
l
p
lp
n
j
k
lp
p
j
k
lp
n
n
P,3366.25
l
R,6,$GPRMC,204634.971,V,,,,,0.49,305.37,020423,,,N*4D
k
lo
p
n
l
lk
o
p
j
ll
o
n
n
lm
n
n
m
l
ll
n
o
m
M,3980,4.00,3.9,0.567,0.630,14,74,1,0,1,42,98
lo
m
l
n
ln
l
n
m
ll
p
n
m
p
ll
i
o
p
ll
n
n
k
lo
m
m
o
ln
m
o
m
l
ln
o
p
m
lj
m
q
o
lm
m
m
l
l
lo
n
n
o
lm
l
o
o
lm
m
o
n
lk
m
n
k
m
lp
o
k
r
lp
i
l
p
lo
j
m
p
lq
m
j
l
o
lr
o
m
m
lo
P,4342.75
n
R,6,$GPRMC,204635.971,V,,,,,0.56,305.37,020423,,,N*42
j
o
lr
o
k
l
lo
o
o
o
m
lk
o
q
n
ln
n
M,4956,4.00,3.9,0.567,0.621,14,74,1,0,1,42,98
l
q
lo
m
k
n
p
lp
m
k
o
lo
n
o
m
lk
o
m
n
ln
j
q
q
l
lk
o
o
l
lm
o
p
n
lo
m
m
o
lm
l
o
p
o
lj
l
o
p
ln
k
m
o
lm
m
q
p
lj
j
p
q
k
ll
o
o
p
lm
m
j
m
lr
o
l
l
n
lk
n
q
m
lm
n
m
P,5319.25
l
R,6,$GPRMC,204636.971,V,,,,,0.56,305.37,020423,,,N*41
lo
m
o
o
ln
p
j
k
o
lm
m
o
l
ln
o
o
o
li
k
o
r
M,5933,4.00,3.9,0.567,0.615,16,74,1,0,1,42,98
ln
i
k
q
n
ln
p
m
l
ln
o
n
l
lk
o
p
p
lj
k
r
l
m
lp
m
n
q
ln
o
n
j
lk
p
o
m
n
ln
l
m
q
lm
l
n
n
lm
l
n
o
lq
n
j
m
r
ln
k
o
p
lk
n
p
o
lo
n
m
m
lo
l
o
q
l
ll
m
n
o
lo
o
p
p
ln
P,6296.00
n
R,6,$GPRMC,204637.971,V,,,,,0.55,305.37,020423,,,N*43
n
o
lo
m
m
m
p
ls
k
l
r
lq
m
m
l
lo
q
o
o
n
lo
M,6909,4.00,3.9,0.567,0.618,13,74,1,0,1,42,98
n
m
p
lq
n
n
q
ll
o
o
m
lo
o
n
o
p
lq
l
m
q
lo
o
m
o
lm
o
n
l
lr
p
n
n
p
ln
o
m
m
lq
q
n
n
lm
n
q
p
lp
p
n
o
o
lm
o
o
m
lp
p
p
o
ln
m
s
r
o
ln
i
k
u
lr
k
m
l
ll
s
r
m
ln
P,7272.50
p
R,6,$GPRMC,204638.971,V,,,,,0.48,305.37,020423,,,N*40
m
l
p
lt
o
m
n
ll
o
q
m
ll
q
o
m
lp
p
n
l
p
lr
m
l
M,7886,4.00,3.9,0.567,0.624,15,74,1,0,1,42,98
o
lo
n
o
p
lo
o
o
n
ln
p
o
m
r
lp
o
p
n
lk
l
r
r
ll
k
q
p
l
lo
o
m
n
lm
q
p
o
ln
o
n
l
lp
q
o
m
m
lq
r
p
n
lk
n
p
o
lp
o
n
m
lo
o
l
o
q
ll
r
q
j
ln
r
q
l
lk
m
r
q
ll
n
p
m
q
P,57.00
lq
R,6,$GPRMC,204639.971,V,,,,,0.40,305.37,020423,,,N*49
l
m
n
lp
q
o
k
lo
r
m
l
q
lo
k
m
q
lo
l
n
p
lp
M,670,4.00,3.9,0.570,0.612,14,74,1,0,1,42,98
n
n
o
lj
l
s
o
l
lq
s
m
j
lq
p
l
m
lo
q
m
l
lo
r
l
k
n
lp
n
o
l
lm
n
n
o
ll
m
m
q
lr
l
m
m
j
lm
p
o
k
lk
s
r
k
lk
o
l
m
o
ln
l
m
r
lo
j
m
n
lm
n
n
n
lq
m
j
j
l
lm
s
p
h
li
P,1033.50
o
R,6,$GPRMC,204640.971,V,,,,,0.38,305.37,020423,,,N*48
m
m
lm
k
n
l
ln
l
l
m
k
ll
m
j
o
lt
l
g
m
ll
m
n
M,1647,4.00,3.9,0.570,0.612,14,74,1,0,1,42,98
m
ll
l
m
m
q
lj
j
r
l
lh
h
m
r
lk
i
m
k
k
ln
m
k
j
lo
q
f
d
lo
t
m
d
ll
p
n
j
i
lm
l
i
j
lm
k
m
o
ll
j
h
k
lo
l
k
l
k
lk
h
i
m
lm
i
i
m
lm
j
j
n
lj
i
m
k
l
lk
j
j
h
ln
q
i
g
P,2010.00
lk
E,GPS_startup
R,6,$GPRMC,204641.971,V,,,,ä|ƒH¸$PMTK001,10,1*03
m
i
l
m
lj
i
j
j
lk
l
j
l
lo
o
h
g
ln
i
i
j
j
M,2842,4.00,3.9,0.573,0.624,387,35,40,0,1,42,98
lk
j
j
n
lo
o
j
f
lh
k
m
l
lm
m
j
g
k
lm
m
i
i
lk
k
j
m
lk
h
o
m
lh
j
k
m
j
lg
l
n
i
lm
j
j
i
lk
p
n
i
j
lk
j
k
l
lk
k
j
l
ln
o
j
f
lk
m
k
m
o
li
i
m
l
lo
k
i
l
lo
k
k
j
lm
k
k
P,2986.50
n
R,6,$GPRMC,204642.971,V,,,,,0.36,305.37,020423,,,N*44
i
li
m
j
k
ln
k
i
n
lo
l
k
k
ln
n
j
h
o
lm
j
M,3600,4.00,3.9,0.570,0.612,14,51,24,0,1,42,98
l
q
lm
h
k
m
lq
j
g
n
q
lm
i
m
l
lk
k
n
p
lk
k
p
n
lh
i
m
l
n
ln
o
n
j
lj
p
r
m
lj
o
l
o
lq
k
j
o
o
lo
l
l
i
lk
o
p
k
lk
n
n
n
ln
n
m
o
l
lj
l
o
m
lp
o
h
m
lq
o
k
k
o
lr
P,3963.25
k
R,6,$GPRMC,204643.971,V,,,,,0.30,305.37,020423,,,N*43
k
q
lt
j
h
v
ln
f
n
q
lm
m
n
o
j
lk
s
p
i
lj
n
p
o
M,4577,4.00,3.9,0.567,0.615,15,74,1,0,1,42,98
lp
q
k
m
lo
n
n
k
m
ls
m
k
r
lr
j
l
o
lk
l
n
o
ln
n
q
l
o
lp
k
n
o
ln
q
l
i
lr
r
j
k
q
ls
o
m
l
lm
o
n
k
lo
o
l
j
lm
p
n
l
r
lm
k
o
q
ln
l
n
p
lm
m
o
o
lk
j
m
p
n
lo
n
l
P,4939.75
l
R,6,$GPRMC,204644.971,V,,,,,0.21,305.37,020423,,,N*44
lm
p
n
j
ln
q
k
l
lp
o
m
j
p
lr
l
m
k
lk
p
r
m
ll
j
M,5553,4.00,3.9,0.567,0.621,13,74,1,0,1,42,98
n
o
n
lm
l
n
o
ln
n
q
k
lf
n
u
r
lj
k
l
m
n
lo
o
n
k
ln
o
l
k
lq
q
h
i
ln
q
r
m
l
ln
o
r
r
lj
k
n
j
lp
q
i
h
ll
q
o
k
l
lr
s
k
g
ln
q
n
m
lm
j
k
q
o
lj
i
r
q
lk
l
n
q
ll
P,5916.25
g
R,6,$GPRMC,204645.971,V,,,,,0.20,305.37,020423,,,N*44
p
q
lg
k
r
o
l
lk
l
m
m
lm
n
m
m
ll
m
p
l
li
p
q
m
M,6530,4.00,3.9,0.567,0.618,15,74,1,0,1,42,98
i
ll
n
l
l
lo
k
k
o
lm
n
l
n
lq
k
i
m
o
ln
i
l
n
lm
n
o
m
lm
m
j
j
p
lq
k
i
o
ln
n
k
j
lo
q
j
k
lo
m
i
k
q
ll
k
m
l
lj
o
l
m
lo
k
l
n
lk
m
o
m
j
lm
p
h
h
ls
o
m
o
lk
k
p
P,6892.75
k
R,6,$GPRMC,204646.971,V,,,,,0.16,305.37,020423,,,N*42
lf
f
p
p
m
ll
k
m
l
lk
n
q
n
li
i
p
n
i
ll
r
n
i
ln
M,7506,4.00,3.9,0.567,0.618,14,74,1,0,1,42,98
k
h
k
lp
m
k
l
ll
l
l
k
j
lm
o
p
o
li
k
l
m
lp
k
k
m
lf
i
s
r
e
li
r
k
h
lm
p
m
h
lj
o
l
n
ln
l
l
k
p
lm
i
n
q
lk
h
i
n
lp
j
i
p
o
lk
k
p
l
lj
i
m
o
ll
l
j
n
ll
i
m
l
m
P,7869.25
R,6,$GPRMC,204647.971,V,,,,,0.18,305.37,020423,,,N*4D
lo
m
k
i
lk
q
o
k
ll
k
n
k
lh
p
p
i
i
lj
l
p
n
lj
l
r
M,291,4.00,3.9,0.570,0.621,14,74,1,0,1,42,98
k
lh
n
k
k
lk
l
n
m
k
ln
n
m
l
lk
i
i
m
ln
n
n
m
k
lk
l
m
l
ll
m
m
g
lj
r
k
g
ln
t
l
h
m
lp
h
j
p
ln
j
k
k
lk
n
n
h
ll
o
l
k
n
lk
g
k
m
ln
o
l
g
ll
q
n
h
lj
k
m
l
l
ll
m
P,654.00
m
R,6,$GPRMC,204648.971,V,,,,,0.14,305.37,020423,,,N*4E
l
ln
m
g
g
lp
v
l
h
i
lk
p
n
e
lg
o
n
g
ll
q
l
g
lj
M,1268,4.00,3.9,0.564,0.615,16,74,1,0,1,42,98
m
l
j
k
lj
k
p
l
lg
j
m
k
lj
l
k
k
ln
k
f
m
q
lk
i
k
p
lk
j
k
k
li
k
o
j
li
m
n
i
k
lo
m
h
l
lj
i
p
j
lc
l
q
i
g
ll
j
i
k
lk
p
o
f
lh
n
q
j
lg
m
q
g
f
lo
o
f
j
lq
j
g
k
ll
P,1630.50
o
R,6,$GPRMC,204649.971,V,,,,,0.14,305.37,020423,,,N*4F
j
f
lp
m
i
l
n
lf
h
n
k
lk
m
m
n
li
j
o
o
lh
k
n
M,2244,4.00,3.9,0.564,0.612,13,74,1,0,1,42,98
l
j
lj
k
m
m
lk
j
l
o
lm
l
g
h
n
lo
i
l
q
lg
k
k
h
ll
k
o
n
lh
l
k
j
o
lq
m
l
h
ll
r
o
e
li
u
l
f
ln
i
m
q
l
lk
l
j
h
lq
o
g
r
ls
e
h
m
ll
p
r
j
h
lo
q
l
l
lj
k
r
m
lf
l
r
P,2607.00
j
R,6,$GPRMC,204650.971,V,,,,,0.16,305.37,020423,,,N*45
i
lp
j
j
l
lr
v
j
j
lu
l
g
q
ln
k
m
q
p
lh
j
k
o
M,3221,4.00,3.9,0.570,0.618,16,74,1,0,1,42,98
ls
i
k
s
lj
i
p
o
lj
n
p
h
k
lp
l
m
u
ln
h
k
m
lj
m
o
o
lq
j
k
m
p
lp
j
l
s
ll
i
r
r
lg
m
r
j
g
ls
m
g
j
lt
t
i
h
lo
n
l
k
lq
q
h
q
q
lg
j
o
s
lm
m
k
m
lu
m
e
l
lo
h
q
P,3583.50
s
R,6,$GPRMC,204651.971,V,,,,,0.23,305.37,020423,,,N*42
f
lg
t
x
e
lf
w
n
g
lr
p
g
h
lq
q
p
o
k
ll
n
k
m
ls
k
M,4197,4.00,3.9,0.570,0.621,15,74,1,0,1,42,98
f
m
lp
p
j
o
u
lh
i
r
o
ll
o
s
j
lf
r
t
i
lk
p
n
h
m
lr
j
h
t
ln
g
k
r
lo
h
m
u
lr
i
f
q
s
lo
k
n
m
lh
n
p
k
lj
j
r
l
li
r
q
k
j
lp
l
i
p
ls
k
j
r
lr
j
i
t
o
lg
k
l
p
lq
i
o
m
lf
m
s
P,4560.00
m
R,6,$GPRMC,204652.971,V,,,,,0.24,305.37,020423,,,N*46
lc
m
v
f
h
lp
m
o
p
lp
k
l
p
lq
l
i
r
M,5174,4.00,3.9,0.567,0.618,14,74,1,0,1,42,98
ls
l
g
n
r
lj
m
p
m
lg
m
v
q
lh
k
m
n
lp
l
k
r
s
lm
k
p
o
ln
l
h
r
ls
g
h
v
o
le
q
u
h
lf
u
s
i
li
r
t
j
lk
n
q
o
j
lj
s
o
e
lo
v
n
f
ll
u
n
k
ln
m
i
l
p
lm
m
o
m
lm
o
k
k
ls
n
n
l
P,5536.75
lk
R,6,$GPRMC,204653.971,V,,,,,0.19,305.37,020423,,,N*49
r
p
i
k
ll
n
o
r
lp
j
i
r
lv
f
i
s
n
lh
M,6150,4.00,3.9,0.567,0.615,13,74,1,0,1,42,98
q
q
k
lj
m
q
q
ll
i
o
n
li
t
p
i
m
lp
l
h
p
lp
e
n
v
li
d
q
t
ll
i
t
p
j
lm
n
o
i
lm
r
r
k
lg
o
q
k
lk
o
m
l
n
lv
k
g
s
lk
i
q
n
lh
r
r
j
k
lo
n
j
o
lq
l
i
h
lr
w
k
c
lo
s
o
j
j
lt
k
h
P,6513.25
n
R,6,$GPRMC,204654.971,V,,,,,0.16,305.37,020423,,,N*41
ln
m
n
l
lm
n
o
o
lh
g
r
s
l
lf
l
q
M,7127,4.00,3.9,0.567,0.624,16,74,1,0,1,42,98
m
lm
n
n
l
lp
p
h
m
lr
k
k
k
j
lo
k
k
p
lq
l
g
l
lq
n
n
h
k
lp
m
m
p
ln
k
n
l
lm
o
g
k
lt
n
n
p
i
li
n
l
j
lp
t
l
e
ln
q
m
l
lk
k
k
j
n
lp
n
j
k
lp
o
h
i
ln
n
k
l
ln
n
i
m
P,7489.75
p
R,6,$GPRMC,204655.971,V,,,,,0.18,305.37,020423,,,N*4E
lm
l
p
l
lj
m
n
i
lh
m
r
o
j
ll
n
k
j
lp
o
l
i
lg
M,8103,4.00,3.9,0.567,0.612,14,74,1,0,1,42,98
o
q
f
lg
p
p
k
j
lo
n
j
l
lk
n
o
m
lm
l
o
n
lf
h
m
m
p
lm
m
n
h
lh
n
m
j
lm
q
l
e
lg
p
o
m
l
lm
l
k
j
lm
m
i
n
ls
j
h
k
r
lk
e
p
o
lm
j
g
l
lm
m
m
m
lj
j
m
p
n
ll
k
m
m
ll
i
o
o
lh
k
P,274.25
n
R,6,$GPRMC,204656.971,V,,,,,0.31,305.37,020423,,,N*46
l
lj
i
o
l
h
ln
m
j
l
lk
k
l
l
lm
m
n
M,888,4.00,3.9,0.567,0.612,14,74,1,0,1,42,98
k
ll
l
k
j
m
lp
n
k
k
le
j
t
p
lh
i
o
r
k
lf
n
r
k
ll
n
j
h
ll
t
n
d
ll
n
m
f
g
lp
s
n
i
lk
n
k
j
ll
q
l
j
ls
o
e
g
n
ln
n
l
l
ll
k
n
o
lj
l
o
m
ll
n
m
n
i
li
o
k
l
ln
n
p
P,1250.75
k
R,6,$GPRMC,204657.971,V,,,,,0.29,305.37,020423,,,N*4E
lg
n
t
l
h
lm
q
o
f
lf
q
o
j
ll
q
o
g
lh
s
m
j
o
M,1864,4.00,3.9,0.567,0.621,15,74,1,0,1,42,98
lo
l
l
m
lm
n
o
i
li
l
m
n
lo
p
m
j
k
lp
s
l
g
ll
n
m
m
lo
n
k
l
lm
k
q
q
j
lk
l
k
k
ll
p
o
l
lj
r
r
h
i
lp
s
m
m
lm
l
o
n
lj
o
p
o
lm
k
k
m
r
lo
j
l
p
lo
n
l
n
lr
n
l
m
lm
P,2227.50
m
R,6,$GPRMC,204658.971,V,,,,,0.30,305.37,020423,,,N*49
k
m
p
lq
m
j
k
lo
o
l
o
lp
o
n
o
ll
o
o
m
l
lk
n
M,2841,4.00,3.9,0.567,0.615,14,74,1,0,1,42,98
r
n
lk
k
m
q
lm
n
n
l
m
lo
o
o
k
ln
q
l
i
ln
r
p
k
ln
n
k
o
p
lm
m
m
j
lo
s
o
j
li
p
r
k
lj
q
n
m
n
lo
o
k
m
ln
o
m
k
ll
p
p
m
lk
n
p
m
o
ln
k
n
p
lj
m
p
n
ln
n
k
p
o
ln
P,3204.00
p
R,8,$GPRMC,204659.971,V,,,,,0.29,305.37,020423,,,N*40
n
m
lm
o
m
p
lp
j
m
p
lr
n
h
k
r
lo
l
k
n
lq
o
k
l
M,3818,4.00,3.9,0.573,0.609,15,74,1,0,1,42,98
lk
p
p
j
lj
p
s
o
n
ll
k
q
q
ll
k
n
p
ln
m
m
l
ln
p
m
l
k
ln
r
p
m
ll
k
m
l
ln
o
m
n
n
ll
k
n
s
lp
l
l
o
lq
m
l
l
lm
o
n
n
o
lo
m
o
o
ll
l
l
p
ll
j
n
m
lo
m
i
o
n
li
m
q
n
lm
P,4180.50
k
R,6,$GPRMC,204700.971,V,,,,,0.21,305.37,020423,,,N*45
n
o
lp
n
k
m
lo
l
l
m
m
ln
o
o
m
lj
j
p
o
lk
m
M,4794,4.00,3.9,0.567,0.618,14,74,1,0,1,42,98
n
n
j
ll
o
k
l
ll
n
o
i
ll
p
o
k
lk
m
n
k
m
lr
i
h
p
lq
l
k
l
ln
l
j
l
lj
m
o
m
m
ll
l
l
l
ll
k
n
p
lk
j
l
l
ll
m
m
m
q
lj
h
l
n
ll
k
m
o
lm
j
k
o
s
lm
j
k
l
lm
l
o
p
li
i
n
P,5157.00
n
R,6,$GPRMC,204701.971,V,,,,,0.10,305.37,020423,,,N*46
lj
m
n
l
l
ll
m
m
l
ll
n
n
l
lj
k
m
m
ll
j
k
n
M,5771,4.00,3.9,0.567,0.618,14,74,1,0,1,42,98
j
lk
l
l
l
lm
p
o
k
li
n
m
j
lo
o
i
k
n
lk
l
l
n
lm
k
j
n
ln
o
j
i
o
lp
l
m
n
lk
j
k
p
lm
k
m
k
lm
m
k
j
k
lm
l
l
j
ll
m
n
o
lj
g
n
r
lk
g
m
p
p
lj
f
k
p
lo
j
k
p
lo
l
j
l
ll
P,6133.50
l
E,GPS_startup
R,6,$GPRMC,204702.971,V,,,,,0í˚E2$PMTK001,10,1*03
k
l
n
ll
l
l
h
lm
p
m
j
ln
m
m
n
k
lj
n
l
m
ll
M,6962,4.00,3.9,0.570,0.627,387,35,40,0,1,42,98
l
l
l
ll
o
k
j
ln
o
m
j
j
lp
n
h
k
lq
o
j
m
lo
k
k
m
lo
k
l
m
l
ln
p
l
l
lk
k
k
n
ln
k
k
o
ln
i
p
n
k
lk
n
m
m
lo
l
o
p
ln
k
k
l
o
lm
l
n
j
lj
q
o
l
lk
n
q
n
lj
o
o
k
n
lo
k
P,7110.00
k
R,6,$GPRMC,204703.971,V,,,,,0.08,305.37,020423,,,N*4D
p
lo
k
m
o
lo
l
m
o
lm
l
l
p
m
lm
m
m
n
lm
l
m
M,7724,4.00,3.9,0.564,0.618,15,52,23,0,1,42,98
l
lo
p
l
n
lo
n
m
m
m
lj
o
m
o
lm
o
j
n
ln
m
n
n
l
lm
o
o
p
lm
i
n
q
ln
l
m
m
ll
l
j
o
r
ll
j
m
q
lo
k
p
o
ll
m
p
o
ll
l
m
n
o
lm
l
n
n
lk
k
o
q
lo
i
n
s
ln
g
n
t
p
lj
l
p
l
P,8086.75
R,6,$GPRMC,204704.971,V,,,,,0.12,305.37,020423,,,N*41
lh
m
p
l
ll
m
p
n
j
lp
p
l
p
ln
l
o
k
lj
p
o
h
lk
M,509,4.00,3.9,0.570,0.615,14,74,1,0,1,42,98
s
n
l
p
ln
l
l
p
lp
m
m
n
lm
l
m
n
lm
q
l
l
n
lp
l
l
o
lo
m
k
j
lo
o
l
l
lq
p
m
m
o
lp
o
l
k
ln
o
m
n
ln
o
o
l
m
ln
o
m
k
lp
r
l
j
lo
r
m
h
lk
r
p
j
l
lp
p
m
l
ll
q
p
P,871.25
m
R,6,$GPRMC,204705.971,V,,,,,0.17,305.37,020423,,,N*45
lo
m
m
p
lo
m
n
n
o
lo
k
o
n
lj
l
q
q
ll
k
n
r
lp
i
l
M,1485,4.00,3.9,0.570,0.618,13,74,1,0,1,42,98
p
m
lq
n
l
q
lq
j
m
n
lo
r
o
n
m
ll
p
q
l
ll
m
l
l
lp
o
l
k
lm
p
m
l
m
ls
p
j
l
lq
m
k
m
lr
o
k
n
lq
n
k
j
p
lo
n
n
k
lo
p
p
n
lm
l
n
m
lj
l
o
o
p
lj
j
q
k
ln
s
m
k
ln
o
m
n
P,1847.75
p
R,6,$GPRMC,204706.971,V,,,,,0.20,305.37,020423,,,N*42
lo
k
j
n
lo
n
m
l
lm
q
o
j
ll
n
o
l
n
lm
m
n
p
M,2462,4.00,3.9,0.567,0.621,15,74,1,0,1,42,98
lj
m
o
m
ln
l
j
o
lo
m
n
k
k
ln
n
o
m
lm
q
m
l
lk
n
p
m
ll
p
l
n
n
lj
l
o
o
ll
o
o
m
ll
m
n
q
n
li
m
t
m
lm
m
j
n
ls
l
k
l
lo
m
l
m
o
ll
r
o
i
lk
q
o
l
ll
m
p
o
lm
m
n
P,2824.25
n
q
R,2,$GPRMC,204707.971,A,4331.4838,N,11603.9114,W,0.19,305.37,020423,,,A*72
lp
h
j
l
lp
r
n
n
ll
m
o
o
lp
l
k
o
m
ll
n
p
p
ln
o
M,3438,4.00,3.9,0.567,0.630,14,74,1,0,1,42,98
k
k
lp
n
m
l
n
lo
m
m
n
lm
m
n
p
lk
l
o
l
ln
m
m
n
m
ln
o
n
j
ln
r
k
j
lq
o
k
m
lo
o
l
j
p
lm
n
n
n
ln
k
n
o
ln
m
m
p
ln
l
n
l
m
lq
n
k
l
ln
n
m
m
lo
r
k
j
q
ll
k
n
l
ln
P,3800.75
r
R,2,$GPRMC,204708.971,A,4331.4839,N,11603.9106,W,0.16,305.37,020423,,,A*70
l
m
lo
l
m
m
lp
o
j
l
q
ll
l
o
o
ln
n
o
l
ln
n
o
l
M,4415,4.00,3.9,0.567,0.621,15,74,1,0,1,42,98
ll
n
m
o
n
ll
k
l
o
ln
o
m
l
ll
n
o
o
ll
o
m
n
l
ll
q
n
m
ln
k
k
m
lq
o
l
n
k
lm
o
k
k
lm
p
q
m
lj
k
q
m
lj
l
o
n
m
lm
n
j
m
lo
l
l
o
lo
m
j
l
lq
p
j
i
o
lo
l
k
p
ln
m
p
m
P,4777.50
ll
l
R,2,$GPRMC,204709.971,A,4331.4843,N,11603.9099,W,0.18,305.37,020423,,,A*75
n
n
l
ln
j
i
q
lq
i
k
n
lo
o
k
i
ln
q
l
k
l
lo
M,5391,4.00,3.9,0.573,0.627,16,74,1,0,1,42,98
o
m
k
ll
m
n
n
lj
k
o
n
lj
o
m
k
k
lp
q
n
i
lj
m
o
n
ll
l
j
m
lm
k
o
p
l
lj
l
n
k
ln
o
m
j
lm
p
m
l
ll
m
n
n
n
ln
j
l
o
lk
l
p
l
lj
n
o
m
m
lm
l
o
n
ln
o
k
j
lm
o
k
l
ln
P,5754.00
o
k
R,2,$GPRMC,204710.971,A,4331.4845,N,11603.9093,W,0.15,305.37,020423,,,A*7C
h
n
lo
m
m
o
lo
l
j
l
lm
n
p
m
ll
k
p
n
j
ln
o
m
M,6368,4.00,3.9,0.567,0.624,14,74,1,0,1,42,98
j
lj
o
q
m
lm
m
m
m
ll
l
o
m
o
lm
l
m
l
lm
n
l
n
ll
k
k
n
o
ll
l
q
p
lj
l
o
n
lj
j
o
n
lk
m
n
n
m
lm
m
l
k
lm
n
o
l
lm
m
j
l
lm
p
q
j
j
ln
n
k
k
lp
m
i
m
lq
l
o
p
ll
m
k
P,6730.50
k
R,2,$GPRMC,204711.971,A,4331.4851,N,11603.9090,W,0.09,305.37,020423,,,A*76
o
lm
m
l
l
ln
n
j
i
lp
p
k
k
n
ln
n
m
n
lm
k
p
m
li
M,7344,4.00,3.9,0.567,0.624,14,74,1,0,1,42,98
l
n
o
lm
k
j
m
l
ln
m
n
o
ll
n
p
l
li
j
n
o
ln
l
k
m
m
ln
k
i
n
lp
n
k
l
ll
o
q
j
lm
p
l
j
n
lp
n
k
j
lm
n
o
l
ll
l
o
k
k
lo
m
l
m
lo
l
k
n
lo
m
m
l
lm
m
m
m
n
ln
l
n
l
P,7707.00
ll
p
R,2,$GPRMC,204712.971,A,4331.4859,N,11603.9087,W,0.07,305.37,020423,,,A*75
o
j
lk
m
n
o
lj
j
n
m
m
ln
k
o
o
lj
k
o
p
lk
j
p
M,129,4.00,3.9,0.570,0.621,16,74,1,0,1,42,98
o
ll
m
o
k
l
lp
m
n
k
lj
n
p
n
lk
o
m
k
l
ln
p
o
k
lj
l
m
n
lo
m
k
n
lo
l
h
l
p
ln
o
m
j
lo
o
n
o
ll
k
l
k
lm
p
r
l
h
lm
q
o
k
lk
k
l
p
lm
j
n
p
lm
l
l
l
m
lm
m
n
n
lm
k
k
p
lm
i
m
o
n
P,491.50
lm
R,2,$GPRMC,204713.971,A,4331.4861,N,11603.9086,W,0.05,305.37,020423,,,A*7C
l
i
l
lq
o
k
i
lo
p
l
k
ln
l
m
m
m
M,1106,4.00,3.9,0.567,0.624,15,74,1,0,1,42,98
ln
n
m
k
ll
m
n
n
ll
j
k
n
lo
l
j
o
o
ll
m
n
l
lk
m
k
k
lo
m
m
k
lm
l
l
l
l
lo
k
k
m
lk
m
o
n
ll
m
m
n
k
ln
n
l
k
lp
m
i
o
ln
l
l
k
ll
n
p
k
i
lm
q
n
k
ll
m
n
l
ln
m
o
l
lm
m
i
m
p
lo
l
P,1468.00
l
R,2,$GPRMC,204714.971,A,4331.4860,N,11603.9085,W,0.16,305.37,020423,,,A*7B
l
lk
n
n
k
lm
n
n
n
lm
j
m
o
l
ll
m
M,2082,4.00,3.9,0.564,0.621,14,74,1,0,1,42,98
n
n
ln
m
i
l
lr
n
k
m
m
ll
k
n
q
lm
h
n
o
lm
l
m
o
ln
o
l
j
l
lm
n
m
k
li
o
p
l
ll
m
m
o
ln
m
n
m
j
lm
o
o
l
lk
q
l
l
ln
n
n
j
ln
n
o
l
i
ln
q
m
j
lm
o
o
m
lm
m
n
l
l
ll
m
n
n
lp
n
k
P,2444.75
l
R,2,$GPRMC,204715.971,A,4331.4862,N,11603.9082,W,0.18,305.37,020423,,,A*71
lo
p
l
k
lo
m
n
p
n
lm
n
j
m
lo
r
n
k
M,3059,4.00,3.9,0.567,0.621,14,74,1,0,1,42,98
lk
p
p
i
lm
p
o
l
l
lo
m
l
l
li
n
p
m
lm
l
m
m
ll
l
m
k
m
lm
k
n
n
lk
o
n
l
lm
n
n
l
l
lo
m
m
m
ll
k
l
p
lq
i
l
n
ln
o
k
j
n
lo
l
l
m
lm
n
l
m
ll
k
m
n
lm
m
o
m
l
ln
l
k
m
P,3421.25
lo
R,2,$GPRMC,204716.971,A,4331.4862,N,11603.9078,W,0.22,305.37,020423,,,A*7E
m
k
m
ll
n
l
l
lm
n
l
m
q
lm
k
l
l
lm
m
m
m
lo
m
M,4035,4.00,3.9,0.567,0.615,14,74,1,0,1,42,98
i
k
o
ln
l
l
m
lm
k
l
p
ll
k
n
m
lk
l
p
o
i
lj
o
n
m
ll
l
l
o
ln
k
l
n
ll
m
n
m
m
lk
l
m
o
lk
k
l
m
ln
n
k
m
lo
l
j
n
l
ll
n
o
o
ll
l
n
k
ll
n
m
k
l
ln
l
l
l
lk
o
n
l
lk
l
n
n
ll
j
n
q
P,4397.75
m
R,2,$GPRMC,204717.971,A,4331.4862,N,11603.9072,W,0.26,305.37,020423,,,A*71
lj
j
j
n
lp
l
m
m
lm
k
j
n
lo
h
k
l
M,5012,4.00,3.9,0.567,0.618,14,74,1,0,1,42,98
n
lo
k
k
m
lm
o
l
j
lo
p
j
l
lp
l
j
n
n
ll
k
m
k
ln
o
m
j
ll
p
n
n
k
lk
l
m
m
ln
n
l
l
ll
m
k
l
lp
l
o
o
j
lk
n
o
m
lj
m
n
k
ll
n
o
n
ll
m
k
k
n
lm
l
n
n
lm
m
m
l
lm
l
l
m
ln
P,5374.25
l
m
R,2,$GPRMC,204718.971,A,4331.4861,N,11603.9069,W,0.31,305.37,020423,,,A*71
o
j
lk
n
o
j
lk
m
n
l
lj
k
o
p
m
lk
k
l
n
ln
M,5988,4.00,3.9,0.564,0.612,14,74,1,0,1,42,98
m
j
k
ln
m
k
l
ll
l
l
n
p
ll
l
m
m
ln
i
k
m
lm
l
q
p
li
j
n
p
j
lg
o
r
k
li
m
p
n
lk
o
n
k
lk
k
m
j
m
lp
l
i
m
lk
n
m
j
ll
o
o
h
l
lp
n
m
l
lk
o
p
k
lj
o
n
m
lm
m
m
n
l
lk
o
P,6350.75
l
j
R,2,$GPRMC,204719.971,A,4331.4861,N,11603.9068,W,0.36,305.37,020423,,,A*76
lp
m
l
l
ll
o
l
l
lm
q
m
i
l
ln
n
m
n
lk
j
n
M,6965,4.00,3.9,0.573,0.624,15,74,1,0,1,42,98
q
lo
l
l
m
ln
m
m
m
l
ll
j
m
m
lm
n
l
k
lm
p
p
k
j
ln
m
n
n
ll
k
o
m
lj
l
q
o
ll
k
m
o
l
lm
m
n
p
ln
l
k
n
lr
k
k
n
ln
n
o
m
l
lm
o
o
n
lo
k
k
p
lp
p
n
m
lk
k
n
o
m
lm
o
m
l
P,7327.50
ln
p
R,2,$GPRMC,204720.971,A,4331.4861,N,11603.9066,W,0.39,305.37,020423,,,A*7D
m
m
lm
n
n
m
o
ln
m
n
n
lm
l
k
o
lp
k
l
n
ln
M,7941,4.00,3.9,0.567,0.618,15,74,1,0,1,42,98
o
l
k
n
ln
o
m
l
lm
o
n
n
ll
m
l
m
lp
m
k
n
o
lm
m
n
m
ln
l
l
o
lo
p
j
i
lo
n
m
m
l
ln
l
k
m
lo
o
k
k
lp
m
m
n
k
ll
l
n
n
lm
o
m
l
lo
m
l
m
ln
m
n
o
j
ll
p
n
i
ll
q
n
m
ll
m
P,112.00
o
n
R,2,$GPRMC,204721.971,A,4331.4863,N,11603.9068,W,0.36,305.37,020423,,,A*7F
lk
k
l
o
q
lm
l
l
m
ll
n
m
m
ll
l
q
n
ll
l
l
M,726,4.00,3.9,0.567,0.621,15,74,1,0,1,42,98
k
m
lo
m
l
n
lm
l
n
m
lk
o
k
l
p
lm
m
k
n
ln
l
m
q
ln
i
k
o
ln
k
n
o
o
lm
j
l
m
lk
l
n
o
ln
k
k
l
lm
n
k
j
k
lo
n
m
m
lj
l
n
o
ll
k
l
m
lo
n
l
j
k
lo
p
j
j
ln
n
g
l
lq
m
j
n
P,1088.50
l
ll
R,2,$GPRMC,204722.971,A,4331.4864,N,11603.9069,W,0.42,305.37,020423,,,A*79
m
l
m
lo
j
i
o
lo
k
l
p
lm
j
n
n
n
lm
l
m
m
M,1703,4.00,3.9,0.567,0.621,16,73,2,0,1,42,98
ll
k
p
m
lj
l
m
m
lm
l
i
l
p
ln
l
m
j
li
n
o
l
lm
m
m
j
lm
k
m
m
l
lm
m
k
l
ll
k
m
q
lo
j
g
m
p
ln
k
j
m
lm
m
l
k
lk
m
n
l
lj
l
o
k
k
lm
k
l
m
ll
m
k
j
ln
k
m
l
ll
m
l
l
P,2065.00
n
E,GPS_startup
R,6,$GPRMC,204723.971,A,433hŸÅ69"1iˇ$PMTK001,10,1*03
lj
l
m
o
ln
k
i
n
lp
j
l
k
lk
o
o
k
k
lm
i
k
q
ll
h
M,2881,4.00,3.9,0.570,0.627,386,35,40,0,1,42,98
n
p
lk
m
m
k
l
lm
l
o
o
li
k
l
m
lm
l
k
n
ll
m
m
m
k
lm
o
n
k
lk
l
l
m
ll
k
n
o
ll
j
k
l
n
ll
k
n
n
li
k
m
m
ll
m
j
m
lp
i
h
n
o
lm
m
j
j
ll
o
m
k
lk
n
l
h
n
ln
k
j
m
lp
n
h
i
lq
P,3041.50
o
R,2,$GPRMC,204724.971,A,4331.4870,N,11603.9075,W,0.39,305.37,020423,,,A*7B
e
l
lp
l
n
m
h
lm
m
n
m
li
k
o
p
li
i
o
m
M,3656,4.00,3.9,0.564,0.612,15,53,22,0,1,42,98
ln
l
j
n
n
lj
l
n
l
ll
l
o
n
lj
j
m
o
ln
k
k
k
m
lp
k
k
m
ln
l
j
m
lm
n
m
j
n
lm
l
n
k
lj
l
n
n
ln
l
m
l
lm
k
l
l
m
lp
j
i
p
ln
l
l
k
lj
n
m
l
lo
k
k
n
k
lk
p
l
i
lo
p
i
k
P,4018.25
lo
m
R,2,$GPRMC,204725.971,A,4331.4872,N,11603.9076,W,0.36,305.37,020423,,,A*74
m
o
j
lm
p
k
l
ll
k
o
n
ll
n
l
i
ll
o
p
k
i
lm
M,4632,4.00,3.9,0.564,0.618,14,74,1,0,1,42,98
m
p
k
ll
n
m
k
ll
m
n
p
li
i
r
m
k
ll
o
m
k
lk
n
o
o
lk
j
m
p
lq
l
l
n
l
lk
l
l
l
lm
n
n
n
lj
j
q
p
lk
k
o
m
i
lm
o
m
l
ll
m
m
m
lm
o
l
j
n
lp
n
l
i
lk
p
l
h
lo
p
l
n
lk
l
P,4994.75
p
n
R,2,$GPRMC,204726.971,A,4331.4873,N,11603.9075,W,0.31,305.37,020423,,,A*72
j
ll
m
o
k
ll
p
m
k
ln
n
l
l
ln
k
l
r
o
ll
l
l
M,5609,4.00,3.9,0.567,0.621,15,73,2,0,1,42,98
m
ln
n
k
k
lo
o
n
m
lo
n
l
l
n
lo
p
n
l
lk
l
o
n
lm
o
n
l
k
ln
o
m
i
ll
q
p
k
lk
m
o
m
lp
i
k
s
m
ll
p
n
l
lm
n
l
n
ll
m
p
n
lj
n
l
m
q
lp
i
n
m
lm
l
l
n
ln
n
l
n
lp
j
m
P,5971.25
o
R,2,$GPRMC,204727.971,A,4331.4875,N,11603.9074,W,0.27,305.37,020423,,,A*73
k
lm
p
o
m
lk
j
o
p
lm
l
p
m
l
lm
m
m
n
ll
p
m
i
lm
M,6585,4.00,3.9,0.567,0.627,16,74,1,0,1,42,98
t
l
i
ln
o
l
q
n
ll
k
m
m
lm
l
p
o
lj
k
o
m
lj
n
p
k
k
lq
p
m
n
ll
m
k
l
lo
o
m
o
ln
l
n
p
m
lm
m
k
n
lr
n
l
j
lk
o
p
j
j
lr
p
l
k
lk
m
p
p
ln
l
m
n
ln
k
m
p
l
lo
m
j
n
P,6947.75
ln
R,2,$GPRMC,204728.971,A,4331.4875,N,11603.9072,W,0.26,305.37,020423,,,A*7B
n
n
k
lj
p
o
j
ll
n
o
n
k
lp
q
k
k
lo
n
k
m
lo
n
m
M,7562,4.00,3.9,0.564,0.615,14,74,1,0,1,42,98
n
lm
j
p
p
m
lk
l
p
n
lm
m
m
l
lr
p
f
k
p
lo
o
k
k
lq
o
j
n
lo
o
n
o
lm
j
l
m
m
lo
m
o
n
lk
p
o
j
ln
p
m
l
ll
m
p
p
j
ll
q
k
n
lp
k
l
n
ln
m
m
n
lo
n
j
n
p
lk
m
m
m
lq
n
j
o
P,7924.25
ln
R,2,$GPRMC,204729.971,A,4331.4872,N,11603.9070,W,0.31,305.37,020423,,,A*79
j
l
p
m
lm
m
n
r
li
h
s
p
lj
l
o
o
lo
m
m
n
l
M,346,4.00,3.9,0.567,0.621,14,74,1,0,1,42,98
ll
n
m
l
lo
m
l
n
lo
l
m
m
ln
q
m
j
p
lo
j
n
n
lj
n
o
m
lk
m
p
n
li
o
r
h
i
ls
q
m
j
li
m
p
l
ll
q
m
j
m
lq
h
k
u
lj
f
r
s
ln
i
i
p
lo
m
n
n
l
lo
m
k
l
ll
m
o
p
ll
m
o
k
lj
m
P,709.00
q
R,2,$GPRMC,204730.971,A,4331.4871,N,11603.9067,W,0.32,305.37,020423,,,A*77
m
m
ll
o
p
k
ll
m
k
p
lm
k
q
o
lh
j
r
r
h
lf
o
M,1323,4.00,3.9,0.564,0.615,14,74,1,0,1,42,98
o
p
lm
l
n
m
ll
n
j
m
p
lp
j
k
m
ll
o
n
i
ln
s
p
i
lk
p
j
l
n
lp
q
k
i
ln
r
j
h
lp
p
n
i
li
o
q
j
l
lr
j
h
q
lq
i
i
p
lm
k
n
o
ln
k
m
m
l
ll
m
o
o
lk
l
n
p
ln
k
l
m
o
lm
k
m
P,1685.50
o
R,2,$GPRMC,204731.971,A,4331.4869,N,11603.9066,W,0.36,305.37,020423,,,A*7A
lo
l
i
n
lo
l
l
o
lo
l
m
l
l
lq
m
k
m
ln
m
l
m
M,2300,4.00,3.9,0.567,0.618,15,74,1,0,1,42,98
lo
l
k
n
lp
n
k
n
m
li
m
n
o
lp
o
l
k
lm
n
m
j
ll
o
n
n
n
lo
j
l
s
ln
i
q
m
lf
n
r
m
j
lm
r
o
j
lk
o
p
l
lm
m
k
l
lo
o
l
m
p
lo
h
k
t
ll
j
o
k
lk
q
n
i
ln
r
m
k
m
lk
n
o
P,2662.00
o
R,2,$GPRMC,204732.971,A,4331.4869,N,11603.9064,W,0.36,305.37,020423,,,A*7B
lm
j
m
q
lk
m
m
k
ln
o
l
j
o
lq
l
l
n
ln
n
m
j
ll
q
M,3276,4.00,3.9,0.567,0.630,18,73,2,0,1,42,98
o
k
n
ln
l
m
p
ln
j
k
l
ln
o
l
l
lm
p
p
j
h
lp
n
l
m
ll
l
l
m
lo
n
k
k
lo
l
k
n
p
lp
l
k
m
lo
l
m
n
ll
l
l
p
ln
k
j
o
o
lo
k
l
o
ln
m
i
l
lo
n
m
l
n
ll
l
m
k
lk
n
n
m
lm
j
l
p
ln
j
P,3638.50
l
R,2,$GPRMC,204733.971,A,4331.4868,N,11603.9062,W,0.39,305.37,020423,,,A*72
m
q
lo
k
j
m
ln
k
k
n
lp
l
k
m
lk
o
m
l
M,4253,4.00,3.9,0.567,0.621,14,74,1,0,1,42,98
l
lj
l
m
q
lp
g
i
p
lr
k
k
k
ll
p
m
l
l
lo
o
k
m
lj
l
p
k
ll
o
o
m
i
ln
o
k
k
ln
m
m
m
ll
l
k
m
ln
p
j
j
l
lp
q
j
l
ll
m
o
k
li
n
p
k
lh
n
p
p
k
li
m
p
o
ll
m
m
l
lm
l
p
n
lm
k
j
o
P,4615.00
p
R,2,$GPRMC,204734.971,A,4331.4868,N,11603.9060,W,0.40,305.37,020423,,,A*79
lj
k
n
m
lo
n
j
m
lp
l
l
k
m
ln
o
m
n
lk
M,5229,4.00,3.9,0.567,0.621,14,74,1,0,1,42,98
m
n
l
ln
l
j
m
lp
q
i
j
o
ll
k
o
n
lk
m
m
o
ll
j
m
n
lo
n
k
k
n
ln
l
j
m
ln
p
l
i
ln
o
j
o
lp
k
k
m
l
lm
o
j
l
lq
k
l
n
lm
m
m
k
m
ln
p
k
h
lq
o
h
k
lo
o
m
j
ll
o
l
l
m
lm
n
l
l
lp
h
P,5591.50
m
R,2,$GPRMC,204735.971,A,4331.4868,N,11603.9059,W,0.39,305.37,020423,,,A*7C
q
lj
l
m
l
lm
k
n
r
n
lj
k
k
n
lp
n
n
M,6206,4.00,3.9,0.567,0.621,13,74,1,0,1,42,98
l
lj
n
j
k
lq
n
l
m
m
lm
m
l
l
lo
l
l
m
lm
n
l
o
m
ll
l
m
n
ln
j
m
p
ll
l
n
k
ll
m
m
o
m
lj
l
n
p
lm
j
m
n
lo
j
n
m
lm
n
m
l
l
lp
o
k
l
lm
n
m
m
ln
m
m
l
lm
n
o
n
k
ll
n
m
k
lm
p
p
l
lk
i
P,6568.25
n
R,2,$GPRMC,204736.971,A,4331.4869,N,11603.9058,W,0.40,305.37,020423,,,A*71
p
m
lk
n
n
k
lo
o
j
o
lm
l
o
m
ll
M,7182,4.00,3.9,0.564,0.618,14,74,1,0,1,42,98
n
k
o
n
lk
l
j
n
lt
l
h
o
ln
l
n
m
ln
n
i
n
o
ll
m
i
m
lr
m
l
p
lk
k
q
n
lj
l
p
m
n
ln
q
n
l
lm
k
l
p
lo
k
l
n
m
ln
o
l
l
ln
p
l
m
lm
j
l
n
lm
p
p
l
l
ll
n
l
m
lo
o
l
l
ll
m
o
n
lm
P,7544.75
l
R,2,$GPRMC,204737.971,A,4331.4870,N,11603.9058,W,0.34,305.37,020423,,,A*7B
n
l
l
lm
p
m
k
lo
p
m
l
ln
n
n
o
lj
m
o
M,8159,4.00,3.9,0.567,0.618,15,74,1,0,1,42,98
l
m
lm
p
m
l
lq
p
j
l
lo
m
l
p
m
ll
n
n
o
lm
k
l
l
lr
o
i
n
lm
k
m
n
n
lp
m
n
n
lj
l
n
p
lo
n
k
n
lm
m
p
m
l
ll
n
q
k
lk
p
n
k
ll
n
n
p
lo
k
m
m
i
ln
q
k
m
lq
o
k
j
ln
m
l
p
o
ll
l
l
P,329.25
n
R,2,$GPRMC,204738.971,A,4331.4869,N,11603.9058,W,0.36,305.37,020423,,,A*7E
ln
m
m
k
lk
q
o
l
lk
l
l
n
o
ll
k
l
r
M,944,4.00,3.9,0.570,0.621,14,74,1,0,1,42,98
lp
k
o
l
li
o
p
l
lk
l
o
o
o
lj
l
o
n
ll
o
q
m
lj
n
k
l
lq
p
j
m
m
lo
n
l
m
ln
k
q
p
ll
n
k
o
q
lj
l
q
n
lk
m
o
n
ln
k
l
o
ll
n
o
n
n
lm
m
m
m
ll
q
p
l
lj
l
n
p
lo
o
n
l
n
ll
j
p
n
P,1305.75
lj
R,2,$GPRMC,204739.971,A,4331.4868,N,11603.9058,W,0.37,305.37,020423,,,A*7F
m
n
o
lk
n
l
l
ln
n
k
k
s
lo
j
l
m
ll
m
M,1920,4.00,3.9,0.567,0.630,16,74,1,0,1,42,98
n
m
lo
n
k
n
o
ll
k
o
n
lk
l
p
k
ll
n
m
n
lo
m
l
o
m
lk
l
p
p
lk
i
n
q
ll
k
k
m
lp
k
k
p
o
lj
n
n
k
lj
n
p
k
ll
n
o
n
lm
l
k
m
n
lm
o
l
l
lp
k
l
m
lm
o
n
m
n
ll
n
o
l
lm
k
n
q
lm
j
P,2282.25
k
R,2,$GPRMC,204740.971,A,4331.4869,N,11603.9058,W,0.33,305.37,020423,,,A*74
m
lp
n
m
k
l
lp
l
n
n
ln
o
l
j
ll
n
o
o
M,2897,4.00,3.9,0.567,0.621,15,74,1,0,1,42,98
li
i
o
o
m
ln
l
k
m
lq
o
k
i
lo
o
l
l
lm
n
l
l
o
lo
k
m
l
lm
l
l
m
lm
n
o
m
l
lm
l
m
p
ln
j
k
o
lm
l
l
l
ln
l
o
l
k
ln
n
o
l
lm
m
j
m
lp
n
k
k
ln
n
m
m
k
ll
o
l
m
lo
m
i
k
P,3259.00
lp
R,2,$GPRMC,204741.971,A,4331.4870,N,11603.9058,W,0.28,305.37,020423,,,A*77
r
m
i
m
ln
l
k
k
lo
o
m
l
ll
m
o
q
lj
j
k
m
s
ll
M,3873,4.00,3.9,0.567,0.621,14,74,1,0,1,42,98
i
l
n
ln
n
m
m
lo
j
k
o
ll
n
n
j
m
lo
l
l
n
ln
j
l
l
lo
m
j
m
lm
p
o
j
m
lp
l
j
k
lo
p
l
k
lm
n
o
l
lh
l
n
o
n
ln
l
k
k
lm
m
m
k
lm
q
l
k
l
lm
n
k
k
lo
m
m
o
lj
j
o
l
lk
m
o
q
k
P,4235.50
li
R,2,$GPRMC,204742.971,A,4331.4873,N,11603.9058,W,0.26,305.37,020423,,,A*79
l
m
o
ln
k
m
m
ll
l
m
j
lm
o
n
m
m
ln
l
i
M,4850,4.00,3.9,0.567,0.624,14,74,1,0,1,42,98
m
ln
j
n
p
ln
l
k
l
ln
l
n
n
m
ln
m
j
n
lo
l
l
o
lp
l
k
l
n
ln
k
k
n
lo
n
k
k
ln
m
l
k
ll
o
n
l
k
lm
q
o
h
lj
n
o
n
ln
m
l
l
lm
o
n
l
k
ln
m
l
m
ln
o
j
l
lq
k
i
p
lo
m
k
l
P,5212.00
o
R,2,$GPRMC,204743.971,A,4331.4878,N,11603.9059,W,0.19,305.37,020423,,,A*7E
ll
n
m
k
lm
m
k
n
lp
n
j
j
m
lo
o
l
l
lk
n
p
n
lk
M,5826,4.00,3.9,0.567,0.621,15,73,2,0,1,42,98
l
o
m
lm
n
l
l
k
lp
o
l
m
lm
l
o
k
ln
p
l
l
lm
m
n
m
k
ln
l
o
q
lk
l
m
n
ln
o
k
l
lo
l
l
n
m
lm
n
l
n
lm
k
o
n
ll
o
o
k
n
ln
j
m
n
ln
o
n
l
ll
l
o
o
li
k
l
n
q
lr
j
i
o
lo
P,6188.50
k
E,GPS_startup
R,6,$GPRMC,204744.971,A,4331.4883,N,11603.9060,W,0.16,305.37,{M$PMTK001,10,1*03
i
q
lq
l
m
l
lk
o
o
l
l
lk
p
q
n
ll
i
k
o
lo
m
m
M,7012,4.00,3.9,0.570,0.633,388,35,40,0,1,42,98
o
lm
n
l
k
p
ls
k
k
j
lm
p
n
n
lm
j
m
p
l
ll
p
o
n
lk
k
n
p
lm
n
i
k
lo
o
o
n
l
lk
p
p
l
lm
m
m
m
lm
o
n
j
lk
m
p
l
m
lm
p
o
n
ll
i
m
p
ln
k
n
p
lm
k
m
m
k
lm
o
n
n
li
m
s
P,7165.00
m
R,2,$GPRMC,204745.971,A,4331.4885,N,11603.9060,W,0.17,305.37,020423,,,A*7E
li
l
m
n
n
lk
m
p
l
ll
n
l
m
ln
m
l
m
lq
n
l
l
m
M,7779,4.00,3.9,0.564,0.615,14,52,23,0,1,42,98
ll
k
o
p
ll
o
m
k
ll
p
n
m
ll
n
n
k
l
lq
q
l
j
lo
p
k
m
lm
m
l
l
lo
o
l
j
m
lo
n
m
l
lk
m
o
n
lk
m
n
k
k
lo
o
l
m
ll
m
n
l
ln
k
m
m
lm
m
m
p
n
lj
j
m
p
ln
l
o
m
ll
j
n
r
lm
j
P,8141.50
j
m
R,2,$GPRMC,204746.971,A,4331.4888,N,11603.9059,W,0.14,305.37,020423,,,A*79
o
lm
k
l
o
ln
k
m
n
ln
m
l
l
lk
n
o
m
j
lm
l
M,564,4.00,3.9,0.567,0.621,14,74,1,0,1,42,98
o
o
lk
j
k
m
lp
l
k
n
m
lm
k
m
n
ll
m
m
m
lm
p
l
i
lo
n
l
n
h
ll
p
l
j
ln
o
m
m
lj
j
p
n
lk
l
m
n
l
lk
l
o
l
lm
p
n
h
lj
p
o
j
lk
m
n
m
l
ln
l
l
m
ll
m
n
m
ll
o
o
l
m
lm
k
P,926.25
l
R,2,$GPRMC,204747.971,A,4331.4891,N,11603.9060,W,0.16,305.37,020423,,,A*78
m
lm
n
m
l
lk
m
n
m
ll
l
n
n
m
ll
m
m
m
ll
k
n
n
M,1541,4.00,3.9,0.567,0.621,15,74,1,0,1,42,98
ln
n
i
k
lp
p
l
j
n
lm
j
m
p
ln
l
k
m
lp
k
j
k
ll
o
m
l
m
lk
n
p
l
lk
l
n
o
lm
m
k
k
k
lk
m
p
k
ll
l
j
m
lo
p
j
k
lo
l
m
l
o
lp
j
i
m
lo
l
i
l
ln
l
m
n
ll
l
l
m
n
lo
l
k
l
ln
n
P,1902.75
j
R,2,$GPRMC,204748.971,A,4331.4893,N,11603.9058,W,0.10,305.37,020423,,,A*78
j
ln
o
n
j
lk
m
n
l
h
ll
q
m
n
lm
j
j
l
lm
k
M,2517,4.00,3.9,0.567,0.630,14,74,1,0,1,42,98
k
k
q
lo
j
l
k
lk
n
n
n
lk
i
m
m
lk
l
p
m
j
lk
o
k
j
lm
m
m
m
ll
k
m
k
ll
p
o
i
m
ln
m
l
j
lj
n
k
j
lp
n
j
l
ln
k
l
l
n
ll
l
l
o
lk
k
m
k
ll
l
m
m
l
lk
k
m
n
lm
l
k
l
ln
m
P,2879.25
n
R,2,$GPRMC,204749.971,A,4331.4896,N,11603.9058,W,0.11,305.37,020423,,,A*7D
j
lj
m
n
l
l
lk
n
m
l
ll
n
o
n
ll
l
k
l
ln
n
k
l
M,3494,4.00,3.9,0.567,0.621,16,74,1,0,1,42,98
n
lm
l
m
n
lo
j
f
n
lp
l
m
l
ln
p
i
l
m
lk
n
m
k
lj
l
o
n
lm
k
k
l
m
lo
n
j
l
lo
n
m
l
lk
j
m
q
lo
l
j
m
o
ll
j
l
p
ln
l
l
m
ll
m
m
l
lm
k
m
p
o
lk
h
n
o
lk
n
m
n
lm
l
i
n
P,3855.75
lq
R,2,$GPRMC,204750.971,A,4331.4898,N,11603.9057,W,0.11,305.37,020423,,,A*74
o
j
m
m
lj
m
p
o
lj
j
l
n
lp
o
j
m
o
lm
k
l
m
lm
M,4470,4.00,3.9,0.567,0.624,14,74,1,0,1,42,98
m
m
m
lo
n
l
k
ll
o
p
m
k
ln
o
j
l
lr
p
l
g
lk
p
q
m
ll
n
o
o
m
ln
n
j
k
lp
n
l
m
lo
m
p
m
li
l
q
p
m
lk
l
n
n
lm
j
n
p
ln
k
n
n
l
ln
m
l
q
lo
j
k
p
lr
o
k
l
ll
p
o
m
k
ll
P,4832.25
p
R,2,$GPRMC,204751.971,A,4331.4902,N,11603.9055,W,0.11,305.37,020423,,,A*75
l
i
lq
o
n
n
lm
m
m
m
lo
n
m
o
o
ll
m
n
m
lo
n
n
M,5447,4.00,3.9,0.567,0.621,15,74,1,0,1,42,98
o
ll
m
m
n
lo
l
k
p
q
lm
j
m
o
lp
m
l
l
lp
p
l
i
o
lo
k
o
o
ll
m
m
n
lo
n
l
o
lp
n
l
l
l
ln
p
n
m
ll
m
o
m
lo
o
m
l
lj
n
r
m
k
lp
p
m
p
lo
j
g
n
lr
l
m
o
lk
m
r
l
j
lp
o
o
P,5809.00
m
R,2,$GPRMC,204752.971,A,4331.4907,N,11603.9054,W,0.17,305.37,020423,,,A*74
lk
l
n
p
lo
j
l
o
o
lm
m
l
n
lp
o
m
n
ln
n
k
k
lo
M,6424,4.00,3.9,0.567,0.621,16,73,2,0,1,42,98
n
m
m
p
lm
m
p
l
ln
s
n
i
lo
q
k
l
ln
o
n
m
k
lm
o
n
n
ll
n
l
n
lp
n
j
n
lo
o
h
l
o
ln
n
n
m
lm
m
l
l
ln
p
o
k
k
lo
p
m
k
ln
n
h
o
lr
l
j
n
lp
o
m
l
j
ln
o
p
l
li
m
q
p
lk
l
m
P,6785.50
o
R,2,$GPRMC,204753.971,A,4331.4912,N,11603.9051,W,0.28,305.37,020423,,,A*78
ln
n
l
l
m
lo
o
l
m
lo
o
m
m
lm
k
n
o
ln
m
j
M,7400,4.00,3.9,0.567,0.618,13,74,1,0,1,42,98
o
m
ln
m
k
o
lm
l
n
n
lm
m
l
m
n
lk
k
o
o
lm
m
l
k
lm
o
n
j
lm
p
n
j
k
lp
n
n
o
lh
l
p
o
lm
m
l
l
lk
n
m
n
m
ln
n
l
m
lm
l
l
l
lp
n
l
k
lk
p
m
i
l
lq
l
j
q
lm
j
n
k
lk
q
n
l
k
lo
P,7762.00
m
R,2,$GPRMC,204754.971,A,4331.4913,N,11603.9048,W,0.27,305.37,020423,,,A*79
l
m
ll
l
k
p
lm
l
n
p
ll
l
k
n
l
ln
n
m
m
M,185,4.00,3.9,0.567,0.621,16,74,1,0,1,42,98
lj
m
q
m
lk
l
m
l
lo
m
j
m
o
ln
i
l
o
lm
j
m
m
ll
m
m
o
lo
j
k
l
o
lq
k
h
o
lo
l
k
m
lo
p
l
i
k
lk
p
o
j
lm
n
l
k
lk
n
n
n
lo
o
k
j
n
lj
k
o
n
lm
n
j
k
lr
n
k
m
lm
l
m
l
m
P,546.50
lo
R,2,$GPRMC,204755.971,A,4331.4917,N,11603.9046,W,0.30,305.37,020423,,,A*74
l
m
k
lj
q
p
i
lk
q
m
i
lm
o
k
m
o
lm
k
m
m
ln
m
M,1161,4.00,3.9,0.567,0.618,13,74,1,0,1,42,98
l
l
ll
l
o
n
k
ll
o
n
l
lm
p
k
k
lo
n
m
l
ll
m
m
o
n
lk
l
j
k
lp
r
j
k
ll
o
o
k
lh
n
p
n
m
ln
l
k
m
ln
n
n
l
lm
n
m
n
lo
l
n
m
m
lk
n
n
n
lo
m
k
j
lp
r
k
j
k
lo
o
m
k
ll
l
p
l
P,1523.00
lj
R,2,$GPRMC,204756.971,A,4331.4918,N,11603.9044,W,0.26,305.37,020423,,,A*7D
l
o
q
lm
j
l
n
m
lm
m
l
i
ln
p
k
m
lq
n
l
l
M,2138,4.00,3.9,0.567,0.621,15,74,1,0,1,42,98
lm
m
n
n
l
lk
p
p
k
ll
n
o
n
lm
l
j
l
lp
l
k
n
q
lm
l
m
l
ll
o
n
j
lj
p
q
l
n
lo
k
n
o
ln
l
l
k
ln
m
p
m
lm
o
m
j
i
lo
r
k
m
ln
l
l
o
lp
j
l
p
ln
m
l
m
n
lm
n
m
l
ll
l
k
n
P,2499.75
lq
m
R,2,$GPRMC,204757.971,A,4331.4920,N,11603.9045,W,0.24,305.37,020423,,,A*74
l
o
m
ll
m
m
m
ln
p
o
k
lj
n
o
p
ln
m
k
m
n
lk
M,3114,4.00,3.9,0.567,0.624,14,74,1,0,1,42,98
m
o
n
ll
l
o
p
ln
l
l
n
ln
m
k
o
o
ln
k
m
k
lm
o
n
i
lk
p
o
m
lm
l
m
q
m
lk
m
o
l
lm
m
o
l
ln
l
n
o
lj
l
p
l
l
lm
k
n
p
ln
l
o
m
lm
m
n
m
n
lo
m
l
k
ln
p
o
m
lj
m
o
m
lk
n
p
P,3476.25
p
n
R,2,$GPRMC,204758.971,A,4331.4926,N,11603.9046,W,0.27,305.37,020423,,,A*7D
lj
l
k
n
lp
o
m
o
ln
j
k
p
ln
n
n
m
m
ll
o
l
M,4091,4.00,3.9,0.564,0.621,14,74,1,0,1,42,98
k
lp
o
m
m
ll
o
k
n
ln
n
j
l
n
ln
q
n
j
lk
m
p
o
lm
k
n
m
m
lp
l
l
m
ln
o
o
l
ln
n
k
n
ln
i
m
r
l
lj
n
p
m
lm
n
j
l
ln
p
m
i
lm
o
n
m
k
lq
k
i
m
lo
m
k
m
ln
l
n
o
lk
j
m
m
m
P,4452.75
ll
l
R,8,$GPRMC,204759.971,A,4331.4929,N,11603.9046,W,0.27,305.37,020423,,,A*73
p
m
ll
k
k
m
lp
m
m
m
n
ln
l
k
n
lm
i
k
n
lo
M,5067,4.00,3.9,0.573,0.627,14,74,1,0,1,42,98
o
k
k
ln
n
l
k
k
lm
m
n
n
ll
l
j
n
lo
l
m
j
ln
o
l
l
k
lm
l
n
m
lk
k
k
p
lo
l
i
j
lm
o
o
k
m
lm
j
m
n
li
j
n
m
ll
j
l
l
l
lm
m
n
k
lj
j
n
k
lk
n
m
m
ll
n
k
j
k
ll
m
m
l
li
k
P,5429.25
p
m
R,2,$GPRMC,204800.971,A,4331.4933,N,11603.9046,W,0.28,305.37,020423,,,A*74
lh
l
m
k
ll
l
h
o
p
lk
l
j
k
ll
j
l
l
lk
l
n
M,6044,4.00,3.9,0.573,0.618,13,74,1,0,1,42,98
j
li
n
k
h
k
ln
l
j
j
ln
m
k
j
lk
k
l
l
k
lm
l
j
j
lm
j
j
m
ln
j
g
l
ln
m
k
h
k
ln
m
l
i
lj
n
o
n
lh
h
m
n
lk
h
l
k
m
lk
i
l
l
lh
l
m
i
lm
k
i
m
lo
j
j
l
k
lj
n
m
j
lk
m
j
l
P,6405.75
ll
R,2,$GPRMC,204801.971,A,4331.4936,N,11603.9045,W,0.31,305.37,020423,,,A*7B
i
j
j
n
ln
k
i
k
lq
l
i
i
ll
l
m
m
li
g
k
o
n
M,7020,4.00,3.9,0.570,0.624,15,74,1,0,1,42,98
lm
h
j
m
lm
l
k
j
lj
m
o
m
li
k
m
l
i
lj
l
o
m
ll
l
l
m
ll
j
j
k
ln
m
k
n
l
lj
n
n
m
lk
l
m
j
lj
m
o
k
j
ll
p
l
k
lk
m
o
l
li
p
r
i
lh
m
q
n
j
lk
m
l
m
ln
k
n
n
lj
p
k
k
lp
o
P,7382.25
m
l
R,2,$GPRMC,204802.971,A,4331.4942,N,11603.9044,W,0.37,305.37,020423,,,A*7C
l
lm
p
m
k
ll
q
m
i
ln
p
m
k
lo
r
l
j
q
lp
j
M,7997,4.00,3.9,0.567,0.624,14,74,1,0,1,42,98
l
r
lm
j
l
o
lo
l
k
o
m
lm
n
l
m
ln
n
m
m
ln
n
n
n
lo
m
n
n
m
ln
o
m
l
ln
n
n
n
lk
n
o
o
lo
k
m
n
q
lj
l
q
m
lm
o
m
o
lp
m
m
m
lm
p
o
k
l
ln
p
m
k
lm
n
n
o
lo
l
n
o
o
ln
l
l
n
P,167.00
lm
R,2,$GPRMC,204803.971,A,4331.4948,N,11603.9044,W,0.43,305.37,020423,,,A*74
n
m
l
lm
p
o
p
lo
j
m
o
m
lm
m
o
o
lm
n
p
o
M,782,4.00,3.9,0.567,0.624,14,74,1,0,1,42,98
ll
n
m
l
ln
o
n
l
o
lp
l
k
o
lo
l
l
n
lr
n
l
o
lo
m
n
k
l
lo
k
o
q
ln
m
k
m
lq
n
j
o
p
ln
m
n
m
ll
o
q
m
ll
o
p
l
lm
o
l
n
o
lo
n
o
n
ln
o
l
m
lo
k
o
o
lo
l
l
p
q
lo
k
k
m
lp
l
n
p
ln
k
P,1143.50
l
R,2,$GPRMC,204804.971,A,4331.4951,N,11603.9043,W,0.43,305.37,020423,,,A*7C
p
lp
o
l
m
r
lm
l
p
n
ln
m
l
l
ln
n
M,1758,4.00,3.9,0.573,0.624,13,73,2,0,1,42,98
m
o
n
lm
m
l
n
lo
l
m
r
lp
l
j
k
lr
o
n
m
l
lp
o
l
m
ln
n
m
o
lp
n
o
l
lm
m
n
n
m
lm
p
p
n
lj
l
q
o
lk
k
p
p
ln
m
l
m
p
ln
m
k
m
lp
o
l
l
ln
o
n
n
l
lk
n
p
m
ll
n
l
l
ln
n
o
p
lm
m
l
k
P,2120.00
l
E,GPS_startup
R,2,$GPRMC,204805.971,A,4331.4952,N,11603.9043,W,0.4NÊ$PMTK001,10,1*03
lp
q
k
j
lk
r
p
l
lj
o
s
m
lj
n
n
m
M,2992,4.00,3.9,0.573,0.633,386,35,40,0,1,42,98
l
lm
n
l
l
ln
n
o
j
lo
r
n
l
ll
k
m
n
m
lm
n
n
n
ll
n
n
n
ll
l
n
n
l
lm
n
l
k
ln
n
p
l
lj
k
n
n
lm
l
l
n
o
lm
n
m
k
lm
l
m
o
lm
j
m
n
ll
j
k
o
p
ll
m
k
o
lq
m
j
l
lo
m
k
l
ll
l
n
k
l
ln
k
P,3096.50
l
R,2,$GPRMC,204806.971,A,4331.4956,N,11603.9044,W,0.43,305.37,020423,,,A*7E
n
ll
k
m
n
ll
l
q
n
h
ll
n
l
j
lo
M,3711,4.00,3.9,0.564,0.615,14,47,28,0,1,42,98
o
l
k
lj
k
m
m
ln
m
j
n
q
lg
l
n
k
lk
k
k
n
ll
g
n
q
li
l
m
m
m
ll
i
l
o
lj
i
m
l
lk
l
n
m
ll
j
j
m
m
lk
l
m
m
lj
l
n
m
ll
i
l
m
l
lk
l
i
m
ll
k
l
l
lj
k
n
o
ll
j
j
m
n
lk
h
n
o
lj
P,4073.00
k
l
R,2,$GPRMC,204807.971,A,4331.4959,N,11603.9045,W,0.38,305.37,020423,,,A*7D
k
ll
l
k
l
lj
i
n
k
j
lo
l
l
k
lk
l
l
M,4688,4.00,3.9,0.570,0.609,14,74,1,0,1,42,98
k
lj
l
m
i
ll
n
m
j
l
ll
n
m
g
lm
q
i
g
lo
m
j
o
k
lh
o
p
j
lj
j
m
n
lk
k
m
o
ll
j
l
i
n
ln
k
k
n
lk
h
m
p
lo
m
j
m
ln
l
j
k
l
lo
o
l
m
ll
k
n
l
li
n
q
m
lj
l
o
p
m
lj
j
m
P,5049.75
o
lk
R,2,$GPRMC,204808.971,A,4331.4960,N,11603.9045,W,0.31,305.37,020423,,,A*71
m
m
o
ll
k
o
p
l
lk
k
n
p
lq
j
j
n
lm
k
o
o
ll
M,5664,4.00,3.9,0.570,0.618,14,74,1,0,1,42,98
n
n
j
m
ln
n
m
l
lk
o
m
l
lp
q
l
i
ll
r
q
l
l
lj
m
n
p
lo
l
i
n
lp
m
m
o
lo
n
l
n
n
lm
p
l
j
lm
q
o
m
lk
n
l
n
n
ln
m
l
m
ln
n
q
n
ll
p
o
n
ln
l
l
o
n
ll
l
q
o
ll
n
q
l
lk
P,6026.25
n
o
R,2,$GPRMC,204809.971,A,4331.4961,N,11603.9046,W,0.24,305.37,020423,,,A*76
p
lm
k
m
p
q
lm
k
n
o
lp
o
l
n
lm
m
o
n
ll
o
p
M,6641,4.00,3.9,0.567,0.621,14,74,1,0,1,42,98
m
l
ln
m
l
p
lq
l
h
n
ls
s
l
l
n
ll
n
o
o
lo
l
l
p
ln
m
o
l
lp
n
l
l
p
lo
l
n
m
lm
l
p
q
lk
l
q
p
lm
l
l
q
q
lj
i
o
o
lm
n
n
n
lk
o
o
m
ln
n
n
p
o
lj
o
o
k
ln
p
n
l
ln
n
P,7002.75
n
n
R,2,$GPRMC,204810.971,A,4331.4961,N,11603.9047,W,0.19,305.37,020423,,,A*71
m
lm
m
o
l
lo
n
m
l
lo
o
m
m
ln
m
m
o
m
lo
n
m
m
M,7618,4.00,3.9,0.570,0.624,15,74,1,0,1,42,98
ln
k
n
p
lm
l
n
p
lm
l
l
n
p
lm
m
n
k
ll
q
o
l
ll
k
p
n
lj
n
o
l
p
lp
l
j
m
lo
o
l
m
ln
l
l
o
p
lk
k
o
m
ln
l
l
m
ln
m
m
o
lm
m
j
k
p
lq
m
j
m
ln
o
p
l
ll
n
k
n
lm
n
n
k
l
P,7979.25
lp
k
R,2,$GPRMC,204811.971,A,4331.4961,N,11603.9049,W,0.13,305.37,020423,,,A*74
m
m
lm
o
m
k
lo
n
m
m
ln
k
m
n
m
lo
m
j
m
lm
l
M,402,4.00,3.9,0.570,0.621,15,74,1,0,1,42,98
m
l
ln
n
o
m
l
lm
l
m
k
lk
n
l
p
ln
k
k
m
ln
n
n
n
k
lj
l
p
n
lm
k
j
n
lo
m
l
m
lm
k
n
l
l
lm
m
n
m
ll
l
n
m
lm
o
l
l
ln
n
k
n
o
lk
l
l
m
lo
n
j
n
ln
l
j
m
n
ln
m
m
m
lm
P,763.75
k
n
R,2,$GPRMC,204812.971,A,4331.4962,N,11603.9048,W,0.15,305.37,020423,,,A*73
m
lm
m
o
n
lk
k
l
m
n
ln
n
l
l
ll
n
n
l
ll
m
k
o
M,1379,4.00,3.9,0.567,0.621,15,74,1,0,1,42,98
lr
m
j
l
m
lo
j
m
n
ll
o
n
j
ll
m
l
m
lm
n
o
m
m
lk
k
m
p
ln
l
l
m
lo
l
l
n
o
lm
k
l
o
ll
j
m
p
lm
m
l
l
ln
n
m
m
m
lm
o
m
i
lm
q
o
l
ll
m
m
n
lj
l
o
o
l
lj
l
o
n
lk
n
m
p
P,1740.50
lm
k
R,2,$GPRMC,204813.971,A,4331.4959,N,11603.9047,W,0.08,305.37,020423,,,A*79
l
n
k
ln
n
l
m
lo
m
m
l
ln
p
m
j
lk
k
n
o
n
ln
M,2355,4.00,3.9,0.567,0.621,14,74,1,0,1,42,98
j
n
n
ll
m
l
n
lm
k
o
m
lm
o
n
k
i
lm
p
k
k
lp
o
l
l
lm
n
l
n
ln
l
m
n
l
ll
m
l
m
lm
o
m
l
lm
o
n
l
lk
l
o
m
k
lk
o
r
l
lj
m
n
l
lk
m
n
k
n
ln
k
o
m
ll
n
l
l
lm
o
m
n
ln
P,2717.00
n
R,2,$GPRMC,204814.971,A,4331.4956,N,11603.9044,W,0.06,305.37,020423,,,A*7C
j
l
m
lk
o
n
m
lm
l
n
o
ll
j
n
n
ll
l
m
o
n
lm
k
k
M,3334,4.00,3.9,0.567,0.621,14,74,1,0,1,42,98
n
ln
l
m
m
ll
o
o
k
lk
o
n
k
l
lm
o
m
m
lm
l
l
o
ln
k
m
o
q
ll
k
l
m
ln
n
j
l
ln
k
o
q
lj
j
n
q
l
li
n
p
l
lk
l
o
n
ll
l
q
n
lk
i
o
q
m
li
m
o
l
ll
n
n
n
ll
k
m
o
lm
m
l
n
P,3693.50
o
R,2,$GPRMC,204815.971,A,4331.4956,N,11603.9047,W,0.14,305.37,020423,,,A*7D
ll
l
k
l
lo
o
l
m
ln
l
m
n
l
lo
m
l
n
lm
m
k
m
ln
M,4308,4.00,3.9,0.570,0.624,18,73,2,0,1,42,98
n
n
m
lm
m
m
m
k
lm
n
n
l
lj
n
m
o
lm
j
p
n
ll
l
k
n
n
ln
n
n
j
lk
l
p
m
lm
m
m
m
ln
n
l
j
k
lm
n
m
l
ll
n
m
l
lo
l
l
n
n
lm
j
l
m
ln
m
k
n
ln
n
j
l
ln
m
l
n
j
ll
p
k
j
ln
n
n
P,4670.00
l
R,2,$GPRMC,204816.971,A,4331.4958,N,11603.9048,W,0.13,305.37,020423,,,A*78
lk
n
p
k
lj
o
m
i
l
lo
m
m
n
ll
i
n
o
lj
k
m
M,5285,4.00,3.9,0.567,0.621,14,74,1,0,1,42,98
n
ll
l
l
m
p
ll
j
l
k
ln
o
n
k
lk
k
l
o
m
lk
m
m
l
ln
m
i
l
lo
l
l
m
lj
k
m
m
l
lk
m
p
o
lj
j
p
m
lh
k
q
n
lk
l
n
k
k
ln
m
n
m
lj
m
m
l
ll
m
l
m
ln
m
n
m
j
lk
n
o
l
lj
m
p
n
lj
P,5646.50
k
R,2,$GPRMC,204817.971,A,4331.4961,N,11603.9049,W,0.12,305.37,020423,,,A*73
o
n
m
lk
l
l
p
lq
j
h
m
ln
n
n
m
ll
o
n
k
j
M,6261,4.00,3.9,0.567,0.621,15,74,1,0,1,42,98
ll
l
m
o
ln
k
m
n
lk
j
n
o
li
j
s
n
h
lm
q
o
k
lk
l
k
o
ln
i
o
o
lk
m
o
l
m
ln
n
j
j
lo
n
n
j
lk
o
m
m
k
lm
p
l
l
lp
m
i
k
lo
n
m
l
lk
n
l
n
q
ll
h
m
m
ln
o
n
o
lm
l
l
l
ll
l
P,6623.00
o
R,2,$GPRMC,204818.971,A,4331.4960,N,11603.9050,W,0.11,305.37,020423,,,A*76
m
m
ln
m
k
m
lq
m
i
o
lr
n
k
l
ln
l
n
l
m
ll
o
M,7238,4.00,3.9,0.570,0.624,14,74,1,0,1,42,98
p
m
lm
j
m
o
lm
n
n
n
l
lm
l
n
n
lm
l
o
n
lm
m
l
n
lm
m
m
n
n
lo
m
n
l
ll
o
m
o
ln
l
l
n
ll
m
n
n
n
ll
n
q
q
lj
j
m
m
ln
n
m
k
ln
o
n
l
m
ln
n
m
o
lq
m
m
l
lk
l
p
o
m
ll
o
P,7599.75
k
R,2,$GPRMC,204819.971,A,4331.4958,N,11603.9050,W,0.08,305.37,020423,,,A*74
m
ln
m
m
o
ll
n
n
k
lm
o
o
l
l
lm
o
o
l
ll
n
q
m
M,23,4.00,3.9,0.567,0.618,15,74,1,0,1,42,98
lk
n
m
l
lo
o
k
m
q
lm
l
p
m
ll
l
o
l
lm
o
n
n
lm
l
n
m
o
lo
i
m
o
lo
o
k
l
ln
p
m
j
n
lm
m
m
m
ln
n
n
n
lj
l
p
n
lm
m
m
n
o
ln
l
l
p
ln
k
l
n
lp
l
i
r
lq
l
l
h
n
ls
n
k
l
ll
P,384.25
n
o
R,2,$GPRMC,204820.971,A,4331.4956,N,11603.9051,W,0.16,305.37,020423,,,A*7E
n
ll
k
n
n
ll
o
o
l
n
ll
o
o
l
lk
l
n
p
lo
n
M,999,4.00,3.9,0.564,0.618,14,74,1,0,1,42,98
j
j
r
lr
j
j
n
lm
p
n
k
ln
n
n
m
lo
m
l
n
o
ll
l
m
o
lm
l
n
n
lp
n
m
n
lm
j
m
p
m
lm
o
n
k
ll
q
o
k
ll
n
p
l
ll
m
p
o
k
lm
p
n
k
ln
n
k
k
lo
p
o
m
l
lm
p
m
m
lk
j
o
p
ln
m
o
k
P,1360.75
lk
R,2,$GPRMC,204821.971,A,4331.4955,N,11603.9053,W,0.22,305.37,020423,,,A*79
p
m
m
o
ll
n
m
k
lp
o
k
p
lq
k
m
q
ll
k
m
l
M,1976,4.00,3.9,0.567,0.618,14,74,1,0,1,42,98
p
lq
m
l
m
lm
n
l
o
lo
o
n
j
lj
p
q
m
i
lk
t
p
j
lm
n
l
k
lq
r
k
j
k
ln
o
l
n
lo
k
n
m
lj
o
q
o
lm
m
m
l
m
lo
m
l
l
lo
m
o
l
ln
n
m
n
lk
l
p
o
n
lm
k
l
r
lp
h
l
m
lo
o
P,2337.25
l
k
R,2,$GPRMC,204822.971,A,4331.4952,N,11603.9053,W,0.27,305.37,020423,,,A*78
lk
q
o
l
l
lo
o
m
j
lj
o
n
l
lm
l
n
o
m
ln
l
k
o
lm
M,2952,4.00,3.9,0.567,0.627,16,74,1,0,1,42,98
m
m
n
ll
l
o
m
lk
n
l
m
m
ln
n
m
l
lm
n
n
l
lo
n
m
m
ll
p
n
l
m
ln
k
m
n
lm
m
m
o
ln
k
m
l
lo
o
n
l
k
ln
n
l
o
ll
k
m
p
lr
m
i
k
p
lo
i
l
n
ln
n
m
k
lm
n
n
k
lj
o
q
l
k
P,3313.75
ll
R,2,$GPRMC,204823.971,A,4331.4948,N,11603.9053,W,0.36,305.37,020423,,,A*72
m
n
m
ll
n
n
l
ll
m
l
j
lo
o
o
k
l
lm
k
o
p
lm
k
l
M,3929,4.00,3.9,0.567,0.624,13,74,1,0,1,42,98
m
lo
m
m
l
lk
n
o
k
n
lm
m
l
m
ln
m
m
l
ll
l
j
m
p
ln
k
n
o
lm
l
l
l
lo
l
j
n
lo
k
m
o
n
lj
k
m
n
lo
n
j
m
ll
m
m
o
ln
l
m
l
n
lm
n
m
k
lm
o
n
l
ll
m
l
n
ll
l
m
m
l
lm
l
o
P,4290.50
o
R,2,$GPRMC,204824.971,A,4331.4946,N,11603.9053,W,0.37,305.37,020423,,,A*7A
ln
j
k
p
ll
k
m
n
k
lk
n
n
m
lk
o
o
i
lj
n
p
n
lj
M,4906,4.00,3.9,0.564,0.609,14,74,1,0,1,42,98
k
m
p
n
li
j
n
l
lo
n
k
l
lp
m
l
m
lm
m
l
n
m
ln
l
l
m
lm
n
n
l
ll
j
m
l
ll
m
n
k
j
ln
m
m
o
lm
i
j
n
ln
k
j
l
p
lm
h
l
m
ll
m
m
k
ll
o
p
k
lh
m
n
k
l
lm
l
m
m
lk
k
l
o
ll
i
m
o
lp
l
i
P,5267.00
k
R,2,$GPRMC,204825.971,A,4331.4945,N,11603.9053,W,0.37,305.37,020423,,,A*78
k
lp
o
k
j
lk
m
n
l
lk
n
n
k
ll
n
o
M,5882,4.00,3.9,0.570,0.624,16,73,2,0,1,42,98
k
k
ll
n
l
n
lm
l
k
j
lj
n
m
j
n
lp
m
k
k
lj
m
n
k
ll
s
m
g
lk
o
m
m
n
lk
l
n
l
ln
j
i
l
lo
n
j
m
lp
l
k
k
k
ln
k
l
n
lk
m
o
l
lj
l
k
n
ll
k
l
o
p
li
h
m
o
lk
l
m
l
lk
k
l
l
l
lo
m
m
n
P,6243.50
ll
E,GPS_startup
R,2,$GPRMC,204826.971,A,4331.4942,N,11603.9053,W,0.41,kÜ˙$PMTK001,10,1*03
j
m
n
lk
k
m
k
lm
n
j
i
l
ll
n
o
k
M,7116,4.00,3.9,0.576,0.636,387,35,40,0,1,42,98
ll
m
n
m
li
k
n
l
lk
m
m
j
m
ln
k
m
l
lm
m
k
k
ll
l
m
n
ln
j
l
m
j
lm
n
j
l
lm
o
i
j
lm
l
n
l
j
ln
n
m
n
lj
l
o
n
lk
i
p
l
lj
l
m
m
m
lk
l
n
m
lm
l
i
m
lq
l
i
n
ln
l
n
j
j
lo
n
i
l
lo
n
P,7220.00
k
R,2,$GPRMC,204827.971,A,4331.4941,N,11603.9055,W,0.43,305.37,020423,,,A*7B
k
lo
n
l
k
lm
m
l
l
m
lm
k
l
o
ll
j
M,7835,4.00,3.9,0.564,0.615,14,47,28,0,1,42,98
l
n
lm
l
l
p
n
lk
l
k
j
lo
l
j
l
lm
m
l
o
lm
m
m
m
j
lm
m
m
m
ln
l
l
l
ln
j
m
p
lj
j
o
m
k
ln
o
m
n
lk
k
p
o
lk
l
n
l
ll
m
n
m
j
lk
m
o
o
lm
j
l
m
ll
n
m
l
m
lm
o
m
m
lm
m
m
j
lk
o
P,4.50
o
R,2,$GPRMC,204828.971,A,4331.4936,N,11603.9054,W,0.46,305.37,020423,,,A*70
k
lk
o
l
n
l
ll
r
l
h
lp
r
k
j
lo
m
m
l
M,620,4.00,3.9,0.564,0.615,14,74,1,0,1,42,98
ll
l
n
o
l
ll
m
n
o
lm
j
m
n
lr
j
k
l
lp
n
k
l
p
lm
m
k
m
lo
k
l
o
ll
l
q
m
i
lm
n
k
k
lm
p
m
l
lm
o
l
l
lp
m
k
m
l
lp
m
n
l
lm
m
k
m
lp
m
k
m
ln
m
o
l
j
ln
m
l
o
lo
k
l
o
lm
P,981.25
l
R,2,$GPRMC,204829.971,A,4331.4930,N,11603.9052,W,0.52,305.37,020423,,,A*74
k
m
m
lm
l
l
p
ln
j
j
o
lo
o
i
l
lo
n
n
k
k
lq
M,1596,4.00,3.9,0.567,0.618,14,74,1,0,1,42,98
m
m
l
lj
n
o
n
lj
j
o
m
lk
o
l
m
n
lm
l
l
j
lm
n
l
o
ll
k
n
l
lk
l
o
l
n
lm
j
m
n
lo
k
k
m
lk
m
p
n
lk
j
k
l
n
lo
k
m
n
lm
k
m
p
lk
i
n
o
j
li
o
m
k
ln
l
n
j
li
o
o
k
lm
p
P,1957.75
n
R,2,$GPRMC,204830.971,A,4331.4925,N,11603.9050,W,0.54,305.37,020423,,,A*7C
k
j
lk
m
k
k
ln
k
m
l
lj
m
m
m
lo
n
i
k
l
lk
m
n
M,2573,4.00,3.9,0.573,0.621,14,74,1,0,1,42,98
m
ll
l
l
n
ll
k
m
k
lm
q
l
g
l
lr
m
g
j
lo
n
l
m
lk
k
o
m
l
ll
m
m
j
lk
m
m
m
lm
k
n
o
lk
j
l
m
m
ll
n
n
n
lk
o
m
n
lm
m
k
n
ln
l
m
l
o
lm
k
l
p
ln
i
j
q
ln
i
j
o
lp
m
l
j
P,2934.25
n
R,2,$GPRMC,204831.971,A,4331.4921,N,11603.9050,W,0.54,305.37,020423,,,A*79
lp
l
m
m
lm
l
k
n
lq
k
l
p
l
ln
m
m
l
ll
m
m
n
ln
M,3549,4.00,3.9,0.570,0.621,14,74,1,0,1,42,98
k
k
l
lo
n
k
m
p
lm
m
m
m
lk
l
p
j
lm
o
n
m
lk
o
o
m
k
lm
n
n
n
ll
k
m
n
lo
n
l
m
ll
m
n
l
n
lm
n
n
o
lm
l
m
l
lm
n
m
m
n
lm
m
n
m
lm
m
n
q
lk
k
p
n
ll
o
n
l
m
ln
m
n
n
P,3910.75
lo
l
R,2,$GPRMC,204832.971,A,4331.4917,N,11603.9049,W,0.57,305.37,020423,,,A*74
i
m
lp
o
m
o
ln
h
j
o
q
lm
m
n
k
lo
r
k
j
ln
o
n
M,4526,4.00,3.9,0.567,0.621,15,74,1,0,1,42,98
n
ll
o
m
l
l
lo
n
o
n
lk
n
o
n
lm
l
n
l
n
ln
l
o
n
ll
m
l
n
lo
o
k
l
lk
l
o
m
k
li
v
D22
l
D4886,-22
e
w
m
lj
p
o
h
ln
s
o
k
m
lo
l
l
o
lo
o
k
m
lr
k
j
n
lo
l
k
o
m
lk
n
p
p
lj
k
P,4887.25
n
R,2,$GPRMC,204833.971,A,4331.4910,N,11603.9046,W,0.63,191.35,020423,,,A*77
o
ln
k
l
p
n
lm
l
o
m
ll
o
m
l
ln
m
m
o
lo
n
n
m
l
M,5502,4.00,3.9,0.570,0.621,14,74,1,0,1,42,98
lo
n
m
m
lm
n
m
k
lp
n
j
m
lo
o
p
k
h
lo
m
o
p
lj
k
n
o
lp
m
l
m
lm
j
m
n
l
lp
q
l
m
lp
m
i
m
lm
o
n
k
m
lm
l
p
n
lk
o
l
l
lp
q
l
j
ll
l
m
q
j
ll
o
n
m
ln
m
m
n
ln
n
l
l
ln
P,5863.75
l
l
R,2,$GPRMC,204834.971,A,4331.4906,N,11603.9044,W,0.64,190.52,020423,,,A*72
m
o
lr
m
l
k
ll
p
m
j
lm
n
l
o
lm
i
n
r
m
li
n
M,6481,4.00,3.9,0.567,0.627,14,74,1,0,1,42,98
n
o
lm
k
m
m
ll
n
o
m
k
lp
p
i
k
lp
m
k
m
lq
r
j
g
ln
l
l
m
p
ln
m
m
k
lm
l
n
p
lp
k
k
l
ln
o
m
k
k
lm
p
j
l
lo
n
m
m
lm
n
p
l
li
n
n
j
l
lm
n
p
k
lh
k
r
o
lm
j
l
o
m
ll
P,6840.50
p
R,2,$GPRMC,204835.971,A,4331.4900,N,11603.9043,W,0.70,188.57,020423,,,A*7B
n
i
ln
o
l
m
lj
m
m
m
ln
l
m
n
l
ll
m
m
m
lm
n
q
h
M,7456,4.00,3.9,0.567,0.621,17,73,2,0,1,42,98
lk
r
n
i
ll
m
p
m
g
ln
p
l
o
ll
m
n
k
ln
p
l
k
lk
m
s
k
h
lm
p
p
m
lk
j
n
n
lm
k
k
n
o
lh
n
o
m
lp
n
i
h
lm
p
n
l
lk
p
q
k
k
lm
l
n
o
li
p
r
k
li
m
n
j
ln
o
m
m
m
ll
m
m
j
lk
o
n
P,7817.00
m
R,2,$GPRMC,204836.971,A,4331.4896,N,11603.9044,W,0.72,193.10,020423,,,A*7A
ln
i
k
q
lm
m
n
l
m
ln
m
l
l
ln
n
k
k
ll
p
M,240,4.00,3.9,0.570,0.624,14,74,1,0,1,42,98
m
h
j
lq
n
l
o
lj
l
m
i
lp
n
l
q
ll
j
l
m
p
ll
i
o
l
li
n
n
m
lm
j
m
q
ln
j
i
o
n
lm
m
n
k
lk
l
m
m
lk
j
q
p
lj
m
p
m
l
lm
m
l
l
lp
o
i
l
lp
l
k
k
l
lo
m
j
l
lm
p
m
k
lm
k
n
P,601.50
p
lk
R,2,$GPRMC,204837.971,A,4331.4893,N,11603.9044,W,0.71,194.66,020423,,,A*7B
k
q
n
l
lj
k
j
l
lq
p
j
k
lo
l
l
n
lp
m
o
j
M,1217,4.00,3.9,0.570,0.621,15,74,1,0,1,42,98
m
ln
i
n
r
ll
h
n
l
lj
n
m
l
ll
n
p
k
k
lm
l
l
o
ll
m
o
l
ll
l
k
l
o
lp
n
l
m
lm
m
m
i
lj
l
q
o
lk
n
k
j
m
lm
o
p
k
lg
n
q
n
lm
m
i
o
lp
m
j
n
p
lk
n
m
l
ln
m
i
l
lp
n
m
k
lm
P,1578.00
n
l
R,2,$GPRMC,204838.971,A,4331.4891,N,11603.9045,W,0.70,194.79,020423,,,A*78
n
o
lm
l
n
m
lk
o
o
m
ll
o
o
k
m
lo
m
m
n
lk
M,2193,4.00,3.9,0.570,0.624,14,74,1,0,1,42,98
k
m
r
lq
l
k
k
lp
q
l
n
o
lm
n
m
n
lr
n
h
m
lp
l
n
o
lp
m
l
o
r
lm
j
m
n
lp
k
m
p
lj
r
p
m
lk
o
q
m
i
lp
r
q
j
lh
o
m
q
lr
m
l
l
m
lo
p
r
n
lg
n
r
o
lj
l
r
p
ll
n
o
n
n
lr
m
P,2554.50
j
o
R,2,$GPRMC,204839.971,A,4331.4888,N,11603.9043,W,0.67,190.23,020423,,,A*7A
lm
m
t
m
lk
n
p
m
lm
q
o
k
n
lo
l
n
t
lo
k
l
M,3170,4.00,3.9,0.570,0.627,15,74,1,0,1,42,98
o
lq
q
k
m
lp
m
o
l
n
lr
o
n
o
lo
l
m
q
lp
l
m
p
n
lr
o
k
o
ln
n
p
k
lo
t
l
k
lk
n
s
o
m
lo
o
m
n
lq
l
l
r
ln
o
o
l
lj
n
q
o
q
lo
n
m
l
lo
o
n
k
ln
o
o
l
lo
m
l
p
l
ll
q
s
l
P,3531.25
lk
o
R,2,$GPRMC,204840.971,A,4331.4886,N,11603.9041,W,0.64,184.52,020423,,,A*78
o
r
lk
k
n
k
p
lr
l
m
m
lm
p
m
m
lo
m
k
p
lq
M,4146,4.00,3.9,0.567,0.624,15,74,1,0,1,42,98
o
j
i
o
ll
m
s
m
lk
p
l
k
ll
o
q
l
lk
p
o
k
k
ln
p
m
o
lm
j
n
p
ln
o
j
i
ln
l
n
o
l
lm
k
l
p
lm
n
o
m
ln
l
j
l
o
lp
k
k
m
ll
j
q
q
li
k
q
n
li
k
o
n
l
lk
h
n
r
lj
h
r
q
ll
h
i
P,4507.75
k
R,2,$GPRMC,204841.971,A,4331.4885,N,11603.9039,W,0.63,179.46,020423,,,A*75
lo
r
l
e
l
lo
m
j
i
lm
n
m
l
lk
n
n
k
ll
n
o
M,5123,4.00,3.9,0.567,0.621,14,74,1,0,1,42,98
m
k
lk
i
m
n
lk
n
n
n
lj
l
m
j
m
ln
j
k
o
lj
k
m
k
lo
j
h
q
lo
k
k
h
i
ln
n
n
l
li
l
l
i
ll
n
j
n
lo
j
k
l
m
